Fuel Type Code,Station Name,Street Address,Intersection Directions,City,State,ZIP,Plus4,Station Phone,Status Code,Expected Date,Groups With Access Code,Access Days Time,Cards Accepted,BD Blends,NG Fill Type Code,NG PSI,EV Level1 EVSE Num,EV Level2 EVSE Num,EV DC Fast Count,EV Other Info,EV Network,EV Network Web,Geocode Status,Latitude,Longitude,Date Last Confirmed,ID,Updated At,Owner Type Code,Federal Agency ID,Federal Agency Name,Open Date,Hydrogen Status Link,NG Vehicle Class,LPG Primary,E85 Blender Pump,EV Connector Types,Country,Intersection Directions (French),Access Days Time (French),BD Blends (French),Groups With Access Code (French),Hydrogen Is Retail,Access Code,Access Detail Code,Federal Agency Code,Facility Type,CNG Dispenser Num,CNG On-Site Renewable Source,CNG Total Compression Capacity,CNG Storage Capacity,LNG On-Site Renewable Source,E85 Other Ethanol Blends,EV Pricing,EV Pricing (French),LPG Nozzle Types,Hydrogen Pressures,Hydrogen Standards,CNG Fill Type Code,CNG PSI,CNG Vehicle Class,LNG Vehicle Class,EV On-Site Renewable Source,Restricted Access,RD Blends,RD Blends (French),RD Blended with Biodiesel,RD Maximum Biodiesel Level,NPS Unit Name,CNG Station Sells Renewable Natural Gas,LNG Station Sells Renewable Natural Gas,Maximum Vehicle Class,EV Workplace Charging
CNG,X3Energy,3103 N Industrial Way,"I-25, exit onto Meadows Pkwy W, left on Industrial, at US-85",Castle Rock,CO,80104,,844-304-9800,E,,Public - Credit card at all times,24 hours daily,A D M Proprietor V Voyager Wright_Exp,,Q,3600,,,,,,,200-9,39.407087,-104.872002,2023-01-10,633,2023-05-30 18:46:28 UTC,P,,,2013-11-01,,MD,,,,US,,,,Public - Carte de crédit en tout temps,,public,CREDIT_CARD_ALWAYS,,STANDALONE_STATION,1,NONE,58,,,,,,,,,Q,3600,MD,,,false,,,,,,true,,MD,
CNG,Clean Energy - Denver International Airport Rental Car,27700 E 78th Ave,"I-70, exit onto Pena Blvd to DIA, follow signs to rental car return",Denver,CO,80249,,866-809-4869,E,,Public - Credit card at all times,24 hours daily; call 866-809-4869 for Clean Energy card,A CleanEnergy Comdata D FleetOne FuelMan M Proprietor V Voyager Wright_Exp,,Q,3000 3600,,,,,,,GPS,39.83765604691739,-104.6805,2022-12-13,648,2023-08-25 15:12:32 UTC,P,,,1996-12-15,,HD,,,,US,,,,Public - Carte de crédit en tout temps,,public,CREDIT_CARD_ALWAYS,,RENTAL_CAR_RETURN,1,NONE,600,,,,,,,,,Q,3000 3600,HD,,,false,,,,,,true,,HD,
LPG,Independent Propane Co,67302 US Highway 285,At Highway 285 and Wandcrest Dr,Pine,CO,80470,,303-838-9880,E,,Public,8am-4:30pm M-F,Cash M V,,,,,,,,,,GPS,39.462523,-105.400158,2022-11-10,14533,2023-02-14 15:54:11 UTC,P,,,1999-07-08,,,true,,,US,,,,Public,,public,,,FUEL_RESELLER,,,,,,,,,"[""ACME""]",,,,,,,,false,,,,,,,,HD,
LPG,Glaser Energy Group,650 County Rd 5,,Divide,CO,80814,,719-687-1180,E,,Public,8am-5pm M-F; must have state decal,Cash Checks CREDIT D Debit M V,,,,,,,,,,GPS,38.951592,-105.157543,2022-12-13,14551,2023-02-14 15:54:11 UTC,P,,,1999-07-08,,,true,,,US,,,,Public,,public,,,FUEL_RESELLER,,,,,,,,,"[""ACME""]",,,,,,,,false,,,,,,,,HD,
LPG,Glaser Energy Group,215 Auburn Dr,,Colorado Springs,CO,80909,,719-596-4765,E,,Public,"8am-5pm M-F, 8am-12pm Sat; must have state decal",Cash D M V,,,,,,,,,,200-9,38.836518,-104.76244,2022-11-10,14554,2023-02-14 15:54:11 UTC,P,,,1999-07-08,,,true,,,US,,,,Public,,public,,,FUEL_RESELLER,,,,,,,,,"[""ACME""]",,,,,,,,false,,,,,,,,HD,
LPG,U-Haul,6275 Wadsworth Bypass,At 62nd St,Arvada,CO,80003,,303-423-1292,E,,Public,"7am-7pm M-Th and Sat, 7am-8pm F, 9am-5pm Sun",A Cash D M V,,,,,,,,,,200-9,39.810594,-105.079996,2023-02-13,20334,2023-02-14 15:54:11 UTC,P,,,2000-11-01,,,true,,,US,,,,Public,,public,,,RENTAL_CAR_RETURN,,,,,,,,,"[""ACME"", ""QUICK_CONNECT""]",,,,,,,,false,,,,,,,,HD,
LPG,U-Haul,13721 E Colfax Ave,At I-225,Aurora,CO,80011,,303-360-9944,E,,Public,"7am-7pm M-Th and Sat, 7am-8pm F, 9am-5pm Sun",A Cash D M V,,,,,,,,,,200-9,39.740617,-104.827797,2023-02-13,20335,2023-02-14 15:54:11 UTC,P,,,2000-11-01,,,true,,,US,,,,Public,,public,,,RENTAL_CAR_RETURN,,,,,,,,,"[""ACME"", ""QUICK_CONNECT""]",,,,,,,,false,,,,,,,,HD,
LPG,U-Haul,615 S Havana St,At Mississippi,Aurora,CO,80012,,303-340-3070,E,,Public,"7am-7pm M-Th and Sat, 7am-8pm F, 9am-5pm Sun",A Cash D M V,,,,,,,,,,GPS,39.705021,-104.8666,2023-02-13,20336,2023-02-14 15:54:11 UTC,P,,,2000-11-01,,,true,,,US,,,,Public,,public,,,RENTAL_CAR_RETURN,,,,,,,,,"[""ACME"", ""QUICK_CONNECT""]",,,,,,,,false,,,,,,,,HD,
LPG,U-Haul,8001 Federal Blvd,At 80th St,Westminster,CO,80031,,303-426-6155,E,,Public,"7am-7pm M-Th and Sat, 7am-8pm F, 9am-5pm Sun",A Cash D M V,,,,,,,,,,200-9,39.842034,-105.025261,2023-02-13,20337,2023-02-14 15:54:11 UTC,P,,,2000-11-01,,,true,,,US,,,,Public,,public,,,RENTAL_CAR_RETURN,,,,,,,,,"[""ACME"", ""QUICK_CONNECT""]",,,,,,,,false,,,,,,,,HD,
LPG,U-Haul,2645 W Alameda Ave,"West of I-25, at Conosa and Alameda",Denver,CO,80219,,303-922-8225,E,,Public,"7am-7pm M-Th and Sat, 7am-8pm F, 9am-5pm Sun",A Cash D M V,,,,,,,,,,200-9,39.711528,-105.01878,2023-02-13,20343,2023-02-14 15:54:11 UTC,P,,,2000-11-01,,,true,,,US,,,,Public,,public,,,RENTAL_CAR_RETURN,,,,,,,,,"[""ACME"", ""QUICK_CONNECT""]",,,,,,,,false,,,,,,,,HD,
LPG,U-Haul,8150 E Colfax Ave,At Unita,Denver,CO,80220,,303-399-7010,E,,Public,"7am-7pm M-Th and Sat, 7am-8pm F, 9am-5pm Sun",A Cash D M V,,,,,,,,,,200-9,39.739738,-104.893217,2023-02-13,20344,2023-02-14 15:54:11 UTC,P,,,2000-11-01,,,true,,,US,,,,Public,,public,,,RENTAL_CAR_RETURN,,,,,,,,,"[""ACME"", ""QUICK_CONNECT""]",,,,,,,,false,,,,,,,,HD,
LPG,U-Haul,7540 York St,"North of Highway 224, Suite B",Denver,CO,80229,,303-286-2766,E,,Public,"7am-7pm M-Th and Sat, 7am-8pm F, 9am-5pm Sun",A Cash D M V,,,,,,,,,,200-9,39.833756,-104.958094,2023-02-13,20346,2023-02-14 15:54:11 UTC,P,,,2000-11-01,,,true,,,US,,,,Public,,public,,,RENTAL_CAR_RETURN,,,,,,,,,"[""ACME"", ""QUICK_CONNECT""]",,,,,,,,false,,,,,,,,HD,
LPG,U-Haul,9190 W Jewell Ave,At Garrison,Lakewood,CO,80232,,303-986-5873,E,,Public,"7am-7pm M-Th and Sat, 7am-8pm F, 9am-5pm Sun",A Cash D M V,,,,,,,,,,200-9,39.681789,-105.099723,2023-02-13,20349,2023-02-14 15:54:11 UTC,P,,,2000-11-01,,,true,,,US,,,,Public,,public,,,RENTAL_CAR_RETURN,,,,,,,,,"[""ACME"", ""QUICK_CONNECT""]",,,,,,,,false,,,,,,,,HD,
LPG,U-Haul,3105 N Nevada Ave,North of Filmore,Colorado Springs,CO,80907,,719-632-4695,E,,Public,"7am-7pm M-Th and Sat, 7am-8pm F, 9am-5pm Sun",A Cash D M V,,,,,,,,,,200-9,38.876658,-104.81853,2023-02-13,20357,2023-02-14 15:54:11 UTC,P,,,2000-11-01,,,true,,,US,,,,Public,,public,,,RENTAL_CAR_RETURN,,,,,,,,,"[""ACME"", ""QUICK_CONNECT""]",,,,,,,,false,,,,,,,,HD,
LPG,U-Haul,1193 N Academy Blvd,Between Galley Rd and San Miguel St,Colorado Springs,CO,80909,,719-574-6500,E,,Public,"7am-7pm M-Th and Sat, 7am-8pm F, 9am-5pm Sun",A Cash D M V,,,,,,,,,,200-8,38.849398,-104.757291,2023-02-13,20358,2023-02-14 15:54:11 UTC,P,,,2000-11-01,,,true,,,US,,,,Public,,public,,,RENTAL_CAR_RETURN,,,,,,,,,"[""ACME"", ""QUICK_CONNECT""]",,,,,,,,false,,,,,,,,HD,
LPG,U-Haul,4030 Carruth Ct,At Highway 50 W and I-25,Pueblo,CO,81008,,719-546-1826,E,,Public,"7am-7pm M-Th and Sat, 7am-8pm F, 9am-5pm Sun",A Cash D M V,,,,,,,,,,GPS,38.3099323,-104.6132315,2023-02-13,20359,2023-02-14 15:54:11 UTC,P,,,2000-11-01,,,true,,,US,,,,Public,,public,,,RENTAL_CAR_RETURN,,,,,,,,,"[""ACME"", ""QUICK_CONNECT""]",,,,,,,,false,,,,,,,,HD,
E85,Sinclair,295 S Broadway,Alameda and S Broadway,Denver,CO,80209,,303-765-5580,E,,Public,24 hours daily,A Cash D M V Voyager Wright_Exp,,,,,,,,,,200-8,39.71153,-104.98792,2022-11-10,20899,2023-09-21 21:29:02 UTC,P,,,2002-10-15,,,,false,,US,,,,Public,,public,,,CONVENIENCE_STORE,,,,,,,,,,,,,,,,,false,,,,,,,,MD,
LPG,Independent Propane Co,880 E Agate Ct,"East on County Road 60, first right down the hill, station on dirt road by railroad tracks on right next to The Saw Mill",Granby,CO,80446,,970-887-3371,E,,Public,8am-5pm M-F,Cash M V,,,,,,,,,,GPS,40.08448823321663,-105.9283874123726,2022-11-10,21148,2023-02-14 15:54:11 UTC,P,,,2001-12-03,,,true,,,US,,,,Public,,public,,,FUEL_RESELLER,,,,,,,,,"[""ACME""]",,,,,,,,false,,,,,,,,HD,
E85,Acorn Petroleum,1041 N Colorado Ave,Off I-76,Brush,CO,80723,,970-842-3122,E,,Public,24 hours daily,A Cash D M V Voyager Wright_Exp,,,,,,,,,,200-8,40.26647,-103.62136,2022-11-10,21996,2023-09-21 21:11:53 UTC,P,,,2005-04-15,,,,false,,US,,,,Public,,public,,,CONVENIENCE_STORE,,,,,,,,,,,,,,,,,false,,,,,,,,MD,
BD,Shoco Oil,5135 E 74th Ave,,Commerce City,CO,80022,,303-289-1677,E,,Public - Credit card after hours,"6am-6pm M-F, 7am-12pm Sat",Cash M V,"B99, B20",,,,,,,,,200-9,39.832768,-104.927427,2022-11-10,23766,2023-02-14 15:54:11 UTC,P,,,2003-11-15,,,,,,US,,,,Public - Carte de crédit après les heures d'ouverture,,public,CREDIT_CARD_AFTER_HOURS,,STANDALONE_STATION,,,,,,,,,,,,,,,,,false,,,,,,,,MD,
E85,Western Convenience Store,2775 Briargate Blvd,Corner of Union and Briargate Blvd,Colorado Springs,CO,80920,,719-268-2703,E,,Public,24 hours daily,A Cash D Debit M V Voyager Wright_Exp,,,,,,,,,,200-9,38.941168,-104.775784,2022-11-10,31460,2023-09-21 21:23:14 UTC,P,,,2007-08-15,,,,false,,US,,,,Public,,public,,,CONVENIENCE_STORE,,,,,,,,,,,,,,,,,false,,,,,,,,MD,
E85,Cenex - Agland,2449 35th Ave,,Greeley,CO,80634,,970-339-5040,E,,Public - Credit card after hours,6am-9pm daily,A Cash D M V Wright_Exp,,,,,,,,,,200-8,40.39646,-104.73556,2022-11-10,31488,2023-09-22 18:52:07 UTC,P,,,2007-03-15,,,,false,,US,,,,Public - Carte de crédit après les heures d'ouverture,,public,CREDIT_CARD_AFTER_HOURS,,CONVENIENCE_STORE,,,,,,,,,,,,,,,,,false,,,,,,,,MD,
E85,Poudre Valley Co-op,225 NW Frontage Rd,,Fort Collins,CO,80524,,970-221-5300,E,,Public - Credit card after hours,"7am-6pm M-F, 7am-4pm Sat",A Cash D M V Voyager Wright_Exp,,,,,,,,,,200-8,40.58959,-105.00218,2022-11-10,31535,2023-09-22 18:48:14 UTC,P,,,2007-04-15,,,,false,,US,,,,Public - Carte de crédit après les heures d'ouverture,,public,CREDIT_CARD_AFTER_HOURS,,COOP,,,,,,,,,,,,,,,,,false,,,,,,,,MD,
E85,Alta Convenience Store - Conoco,15201 E Hampden,,Aurora,CO,80014,,303-693-1887,E,,Public - Credit card after hours,5am-11pm daily,A Cash D M V Voyager Wright_Exp,,,,,,,,,,200-8,39.6534,-104.8111,2022-11-10,31668,2023-09-21 21:18:27 UTC,P,,,2007-05-15,,,,false,,US,,,,Public - Carte de crédit après les heures d'ouverture,,public,CREDIT_CARD_AFTER_HOURS,,CONVENIENCE_STORE,,,,,,,,,,,,,,,,,false,,,,,,,,MD,
E85,Alta Convenience Store,2801 N Elizabeth,,Pueblo,CO,81008,,719-544-9249,E,,Public - Credit card after hours,"5am-11pm M-Sat, 6am-11pm Sun",A Cash D M V Voyager Wright_Exp,,,,,,,,,,200-8,38.29702,-104.61573,2022-11-10,31734,2023-09-21 21:03:41 UTC,P,,,2007-08-15,,,,false,,US,,,,Public - Carte de crédit après les heures d'ouverture,,public,CREDIT_CARD_AFTER_HOURS,,CONVENIENCE_STORE,,,,,,,,,,,,,,,,,false,,,,,,,,MD,
E85,Alta Convenience Store,723 Pueblo Blvd,,Pueblo,CO,81005,,719-564-6465,E,,Public - Credit card after hours,5am-11pm daily,A Cash D M V Voyager Wright_Exp,,,,,,,,,,200-8,38.25367,-104.66208,2022-11-10,31735,2023-09-21 21:17:00 UTC,P,,,2007-10-15,,,,false,,US,,,,Public - Carte de crédit après les heures d'ouverture,,public,CREDIT_CARD_AFTER_HOURS,,CONVENIENCE_STORE,,,,,,,,,,,,,,,,,false,,,,,,,,MD,
E85,Alta Convenience Store,2105 Colorado Ave,,Colorado Springs,CO,80904,,719-473-7230,E,,Public - Credit card after hours,"6am-11pm M-Sat, 7am-10pm Sun",A Cash D M V Voyager Wright_Exp,,,,,,,,,,200-8,38.84348,-104.8571,2022-11-10,31785,2023-09-21 21:13:27 UTC,P,,,2007-06-15,,,,false,,US,,,,Public - Carte de crédit après les heures d'ouverture,,public,CREDIT_CARD_AFTER_HOURS,,CONVENIENCE_STORE,,,,,,,,,,,,,,,,,false,,,,,,,,MD,
E85,Alta Convenience Store,1970 S Holly,Holly and Atlantic,Denver,CO,80222,,303-759-5090,E,,Public - Credit card after hours,"6am-11pm M-Sat, 7am-10pm Sun",A Cash D M V Voyager Wright_Exp,,,,,,,,,,200-8,39.6809,-104.92191,2022-11-10,32279,2023-09-21 20:57:22 UTC,P,,,2007-10-15,,,,false,,US,,,,Public - Carte de crédit après les heures d'ouverture,,public,CREDIT_CARD_AFTER_HOURS,,CONVENIENCE_STORE,,,,,,,,,,,,,,,,,false,,,,,,,,MD,
E85,Western Convenience Store,2507 E Platte Ave,,Colorado Springs,CO,80907,,719-634-4049,E,,Public,24 hours daily,A Cash D M V Voyager Wright_Exp,,,,,,,,,,200-8,38.83907,-104.77932,2022-11-10,32404,2023-09-21 21:39:24 UTC,P,,,2007-10-15,,,,false,,US,,,,Public,,public,,,CONVENIENCE_STORE,,,,,,,,,,,,,,,,,false,,,,,,,,MD,
E85,Western Convenience Store,2387 W 72nd Ave,,Denver,CO,80221,,303-429-5754,E,,Public,24 hours daily,A Cash D M V Voyager Wright_Exp,,,,,,,,,,200-8,39.82759,-105.01522,2022-11-10,32406,2023-09-22 18:26:14 UTC,P,,,2007-08-15,,,,false,,US,,,,Public,,public,,,CONVENIENCE_STORE,,,,,,,,,,,,,,,,,false,,,,,,,,MD,
E85,Western Convenience Store,1500 N Main St,,Longmont,CO,80501,,303-651-1000,E,,Public,24 hours daily,A Cash D Debit M V Voyager Wright_Exp,,,,,,,,,,200-8,40.18512,-105.10205,2022-11-10,32409,2023-09-22 18:57:05 UTC,P,,,2007-10-15,,,,false,,US,,,,Public,,public,,,CONVENIENCE_STORE,,,,,,,,,,,,,,,,,false,,,,,,,,MD,
E85,Western Convenience Store,3201 Lake Ave,,Pueblo,CO,81004,,719-564-0591,E,,Public,24 hours daily,A Cash D M V Voyager Wright_Exp,,,,,,,,,,200-8,38.2183,-104.62564,2022-11-10,32410,2023-09-22 18:23:07 UTC,P,,,2007-10-15,,,,false,,US,,,,Public,,public,,,CONVENIENCE_STORE,,,,,,,,,,,,,,,,,false,,,,,,,,MD,
E85,Western Convenience Store,9190 Huron St,,Thornton,CO,80260,,303-412-0065,E,,Public,24 hours daily,A Cash D M V Voyager Wright_Exp,,,,,,,,,,200-9,39.863116,-104.996078,2022-11-10,32411,2023-09-22 18:55:46 UTC,P,,,2007-08-15,,,,false,,US,,,,Public,,public,,,CONVENIENCE_STORE,,,,,,,,,,,,,,,,,false,,,,,,,,MD,
BD,Team Petroleum,105 E Lincoln,,Fort Collins,CO,80524,,970-482-2533,E,,Public - Credit card after hours,7am-5pm M-F,Cash M V,"B20 in summer, B10 in winter",,,,,,,,,200-9,40.587877,-105.067097,2022-11-10,32493,2023-02-14 15:54:11 UTC,P,,,2007-08-15,,,,,,US,,,,Public - Carte de crédit après les heures d'ouverture,,public,CREDIT_CARD_AFTER_HOURS,,FUEL_RESELLER,,,,,,,,,,,,,,,,,false,,,,,,,,MD,
E85,Eagle Convenience #5 - Cenex,600 E 8th Ave,,Yuma,CO,80759,,970-848-2107,E,,Public,24 hours daily,A Cash D M V Wright_Exp,,,,,,,,,,200-8,40.11991,-102.71607,2022-11-10,32736,2023-09-22 18:49:48 UTC,P,,,2007-01-15,,,,false,,US,,,,Public,,public,,,CONVENIENCE_STORE,,,,,,,,,,,,,,,,,false,,,,,,,,MD,
E85,Kum & Go #934,8105 6th St,,Wellington,CO,80549,,970-568-3173,E,,Public,24 hours daily,A Cash D FuelMan M V Voyager Wright_Exp,,,,,,,,,,200-8,40.702201,-105.000419,2023-03-08,33325,2023-03-08 17:16:33 UTC,P,,,2008-07-01,,,,false,,US,,,,Public,,public,,,CONVENIENCE_STORE,,,,,,,,,,,,,,,,,false,,,,,,,,,
E85,Thunderbird Petroleum,322 Highway 96,,Sheridan Lake,CO,81071,,719-729-3316,E,,Public,7am-7pm daily,A Cash D M V Voyager Wright_Exp,,,,,,,,,,200-8,38.46584,-102.29128,2022-11-10,33343,2023-09-21 20:58:49 UTC,P,,,2007-09-15,,,,false,,US,,,,Public,,public,,,CONVENIENCE_STORE,,,,,,,,,,,,,,,,,false,,,,,,,,MD,
E85,Kum & Go #914,7027 20th St,,Greeley,CO,80634,,970-330-8552,E,,Public,24 hours daily,A Cash D FuelMan M V Voyager Wright_Exp,,,,,,,,,,200-9,40.407386,-104.7935,2023-03-08,33397,2023-03-08 17:16:33 UTC,P,,,2008-02-15,,,,false,,US,,,,Public,,public,,,CONVENIENCE_STORE,,,,,,,,,,,,,,,,,false,,,,,,,,,
E85,Western Convenience Store,123 W Cranson Ave,,Fowler,CO,81039,,719-263-5679,E,,Public,5am-10pm daily,A Cash D Debit M V Voyager Wright_Exp,,,,,,,,,,200-8,38.13112,-104.0247,2022-11-10,33435,2023-09-21 21:09:34 UTC,P,,,2008-07-01,,,,false,,US,,,,Public,,public,,,CONVENIENCE_STORE,,,,,,,,,,,,,,,,,false,,,,,,,,MD,
E85,Western Convenience Store,2630 Colorado Blvd,,Idaho Springs,CO,80452,,303-567-2156,E,,Public,24 hours daily,A Cash D M V Voyager Wright_Exp,,,,,,,,,,200-8,39.74174,-105.50263,2022-11-10,33442,2023-09-22 18:34:41 UTC,P,,,2014-05-16,,,,false,,US,,,,Public,,public,,,CONVENIENCE_STORE,,,,,,,,,,,,,,,,,false,,,,,,,,MD,
E85,Boulder Gas,2995 28th St,,Boulder,CO,80301,,303-444-6566,E,,Public - Credit card after hours,5am-12am daily,A Cash Checks D M V Voyager Wright_Exp,,,,,,,,,,200-8,40.02879,-105.2588,2022-08-10,33443,2023-09-21 21:27:02 UTC,P,,,2015-03-24,,,,false,,US,,,,Public - Carte de crédit après les heures d'ouverture,,public,CREDIT_CARD_AFTER_HOURS,,GAS_STATION,,,,,,,,,,,,,,,,,false,,,,,,,,MD,
E85,Western Convenience Store,12702 Lowell Blvd,At 128th and Lowell,Broomfield,CO,80020,,303-404-2550,E,,Public,24 hours daily,A Cash Checks D M V Wright_Exp,,,,,,,,,,200-8,39.92707,-105.03405,2022-11-10,33908,2023-09-22 18:58:02 UTC,P,,,2009-02-15,,,,false,,US,,,,Public,,public,,,CONVENIENCE_STORE,,,,,,,,,,,,,,,,,false,,,,,,,,MD,
E85,Western Convenience Store,227 W Fillmore St,,Colorado Springs,CO,80907,,719-630-3493,E,,Public,24 hours daily,A Cash D M V Voyager Wright_Exp,,,,,,,,,,200-8,38.87468,-104.82663,2022-11-10,33910,2023-09-22 18:43:06 UTC,P,,,2009-06-15,,,,false,,US,,,,Public,,public,,,CONVENIENCE_STORE,,,,,,,,,,,,,,,,,false,,,,,,,,MD,
E85,Kum & Go #912,30393 Kings Valley Dr,,Conifer,CO,80433,,303-816-0558,E,,Public,24 hours daily,A Cash D FuelMan M V Voyager Wright_Exp,,,,,,,,,,200-9,39.493385,-105.349489,2023-03-08,34275,2023-03-08 17:16:33 UTC,P,,,2008-11-12,,,,false,,US,,,,Public,,public,,,CONVENIENCE_STORE,,,,,,,,,,,,,,,,,false,,,,,,,,,
E85,Kum & Go #940,70 W Bridge,,Brighton,CO,80601,,303-659-9546,E,,Public,24 hours daily,A Cash D FuelMan M V Voyager Wright_Exp,,,,,,,,,,200-9,39.986413,-104.825038,2023-03-08,35445,2023-03-08 17:16:33 UTC,P,,,2009-05-15,,,,false,,US,,,,Public,,public,,,CONVENIENCE_STORE,,,,,,,,,,,,,,,,,false,,,,,,,,,
E85,Kum & Go #973,127 Laura Way,,Dacono,CO,80514,,303-833-3935,E,,Public,24 hours daily,A Cash D FuelMan M V Voyager Wright_Exp,,,,,,,,,,GPS,40.08238,-104.949175,2023-03-08,35446,2023-03-08 17:16:33 UTC,P,,,2009-07-30,,,,false,,US,,,,Public,,public,,,CONVENIENCE_STORE,,,,,,,,,,,,,,,,,false,,,,,,,,,
E85,Kum & Go #938,308 Agate Ave,,Granby,CO,80446,,970-887-3031,E,,Public,24 hours daily,A Cash D FuelMan M V Voyager Wright_Exp,,,,,,,,,,200-9,40.085906,-105.947125,2023-03-08,35447,2023-03-08 17:16:33 UTC,P,,,2020-01-17,,,,false,,US,,,,Public,,public,,,CONVENIENCE_STORE,,,,,,,,,,,,,,,,,false,,,,,,,,,
E85,Kum & Go #913,13799 Pacific Cir,,Longmont,CO,80504,,970-535-4601,E,,Public,24 hours daily,A Cash D FuelMan M V Voyager Wright_Exp,,,,,,,,,,GPS,40.203883,-104.975044,2023-03-08,35527,2023-03-08 17:16:33 UTC,P,,,2009-09-18,,,,false,,US,,,,Public,,public,,,CONVENIENCE_STORE,,,,,,,,,,,,,,,,,false,,,,,,,,,
E85,Stratton Equity Co-op,515 Lincoln St,,Burlington,CO,80807,,719-346-5560,E,,Public - Credit card after hours,"7am-5pm M-F, 7am-12pm Sat",A Cash D M V Voyager Wright_Exp,,,,,,,,,,200-8,39.30535,-102.278774,2023-08-10,35599,2023-08-10 16:58:49 UTC,P,,,2020-02-28,,,,true,,US,,,,Public - Carte de crédit après les heures d'ouverture,,public,CREDIT_CARD_AFTER_HOURS,,COOP,,,,,,"[""E15""]",,,,,,,,,,,false,,,,,,,,MD,
CNG,X3Energy,7984 US Highway 85,Weld County Rd 18,Fort Lupton,CO,80621,,844-304-9800,E,,Public - Credit card at all times,24 hours daily,A D FuelMan M Proprietor V Wright_Exp,,Q,3600,,,,,,,200-9,40.115736,-104.81034,2023-01-10,36294,2023-05-30 18:46:28 UTC,P,,,2012-12-06,,HD,,,,US,,,,Public - Carte de crédit en tout temps,,public,CREDIT_CARD_ALWAYS,,TRUCK_STOP,1,NONE,2,,,,,,,,,Q,3600,HD,,,false,,,,,,true,,HD,
CNG,X3Energy,103 Hill St,Station is located at US-34,Kersey,CO,80644,,844-304-9800,E,,Public - Credit card at all times,24 hours daily,A D FuelMan M Proprietor V Wright_Exp,,Q,3600,,,,,,,200-8,40.392048,-104.564368,2023-01-10,36295,2023-05-30 18:46:28 UTC,P,,,2012-12-20,,HD,,,,US,,,,Public - Carte de crédit en tout temps,,public,CREDIT_CARD_ALWAYS,,TRUCK_STOP,1,NONE,2,,,,,,,,,Q,3600,HD,,,false,,,,,,true,,HD,
CNG,City of Grand Junction,2553 Riverside Pkwy,Riverside Pkwy and Broadway,Grand Junction,CO,81501,,970-245-3440,E,,Public - Credit card at all times,24 hours daily,GasCard M V,,Q,3600,,,,,,,200-8,39.073697,-108.582361,2022-11-10,36775,2023-05-30 18:46:28 UTC,LG,,,2011-03-15,,HD,,,,US,,,,Public - Carte de crédit en tout temps,,public,CREDIT_CARD_ALWAYS,,MUNI_GOV,1,WASTEWATER,136,34105,,,,,,,,Q,3600,HD,,,false,,,,,,true,,HD,
ELEC,Denver International Airport - Canopy Airport Parking,8100 Tower Rd,Located in the indoor valet and covered self-parking,Commerce City,CO,80022,,303-574-9800,E,,Public,24 hours daily; pay lot,,,,,18,9,1,,Non-Networked,,GPS,39.843886,-104.771138,2021-12-09,38522,2023-06-16 17:39:11 UTC,P,,,2010-10-19,,,,,CHADEMO J1772 NEMA515,US,,,,Public,,public,,,PARKING_LOT,,,,,,,Free,,,,,,,,,,false,,,,,,,,LD,false
ELEC,Town of Superior - Town Hall,124 E Coal Creek Dr,McCaslin and E Coal Creek Drive,Superior,CO,80027,,303-499-3675,E,,Public,24 hours daily,,,,,,2,,,Non-Networked,,200-9,39.953798,-105.166116,2022-11-10,38523,2023-02-14 15:54:11 UTC,LG,,,2020-07-01,,,,,J1772,US,,,,Public,,public,,,MUNI_GOV,,,,,,,$0.18 per kWh for first four hours; additional $25 fee after four hours,,,,,,,,,,false,,,,,,,,LD,false
ELEC,New Belgium Brewing,500 Linden St,,Fort Collins,CO,80524,,970-221-0524,E,,Public - Call ahead,11am-8pm daily,,,,,,4,,,Non-Networked,,200-9,40.593417,-105.0684,2023-01-10,42529,2023-02-14 15:54:11 UTC,P,,,2011-12-01,,,,,J1772,US,,,,Public - Appeler à l'avance,,public,CALL,,BREWERY_DISTILLERY_WINERY,,,,,,,Free,,,,,,,,,,false,,,,,,,,LD,false
ELEC,Tynan's Nissan,5811 S College Ave,,Fort Collins,CO,80525,,970-282-1400,E,,Public - Call ahead,Dealership business hours,,,,,,1,,,Non-Networked,,200-9,40.505604,-105.078041,2020-06-09,43021,2023-02-15 22:45:41 UTC,P,,,2012-01-15,,,,,J1772,US,,,,Public - Appeler à l'avance,,public,CALL,,CAR_DEALER,,,,,,,Free,,,,,,,,,,false,,,,,,,,,false
ELEC,Tremont Street Garage,400 15th St,,Denver,CO,80202,,303-534-7559,E,,Public,Garage business hours; pay lot,,,,,,2,,,Non-Networked,,200-9,39.742113,-104.991416,2022-01-10,43833,2022-02-10 19:42:29 UTC,P,,,2011-02-28,,,,,J1772,US,,,,Public,,public,,,PAY_GARAGE,,,,,,,Free,,,,,,,,,,false,,,,,,,,LD,false
LPG,U-Haul,2000 W Lower Colfax Ave,"At Zuni, north of 14th St",Denver,CO,80204,,303-534-6072,E,,Public,"7am-7pm M-Th and Sat, 7am-8pm F, 9am-5pm Sun",A Cash D M V,,,,,,,,,,200-9,39.739405,-105.016297,2023-02-13,43883,2023-02-14 15:54:11 UTC,P,,,2012-03-14,,,true,,,US,,,,Public,,public,,,RENTAL_CAR_RETURN,,,,,,,,,"[""ACME"", ""QUICK_CONNECT""]",,,,,,,,false,,,,,,,,HD,
LPG,U-Haul,15250 E 40th Ave,Chambers and I-70 across from Wendy's,Denver,CO,80239,,303-371-8941,E,,Public,"7am-7pm M-Th and Sat, 7am-8pm F, 9am-5pm Sun",A Cash D M V,,,,,,,,,,200-9,39.77216,-104.81101,2023-02-13,43884,2023-02-14 15:54:11 UTC,P,,,2012-03-14,,,true,,,US,,,,Public,,public,,,RENTAL_CAR_RETURN,,,,,,,,,"[""ACME"", ""QUICK_CONNECT""]",,,,,,,,false,,,,,,,,HD,
LPG,U-Haul,15500 W Colfax Ave,Colfax and I-70 across from Toyota dealership.,Golden,CO,80401,,303-279-9696,E,,Public,"7am-7pm M-Th and Sat, 7am-8pm F, 9am-5pm Sun",A Cash Checks D M V,,,,,,,,,,200-9,39.729583,-105.173743,2023-02-13,43886,2023-02-14 15:54:11 UTC,P,,,2012-03-14,,,true,,,US,,,,Public,,public,,,RENTAL_CAR_RETURN,,,,,,,,,"[""ACME"", ""QUICK_CONNECT""]",,,,,,,,false,,,,,,,,HD,
ELEC,Tynan's Nissan,780 S Havana St,,Aurora,CO,80012,,303-341-7330,E,,Public - Call ahead,Dealership business hours,,,,,,2,1,,Non-Networked,,GPS,39.702351,-104.865298,2022-03-07,46520,2023-02-14 15:54:11 UTC,P,,,2012-01-31,,,,,CHADEMO J1772 J1772COMBO,US,,,,Public - Appeler à l'avance,,public,CALL,,CAR_DEALER,,,,,,,Free,,,,,,,,,,false,,,,,,,,LD,false
ELEC,Boulder Nissan,2285 28th St,,Boulder,CO,80301,,303-443-8110,E,,Public - Call ahead,24 hours daily,,,,,,3,1,,Non-Networked,,GPS,40.025019,-105.258915,2022-03-07,46522,2023-02-14 15:54:11 UTC,P,,,2012-01-31,,,,,CHADEMO J1772 J1772COMBO,US,,,,Public - Appeler à l'avance,,public,CALL,,CAR_DEALER,,,,,,,Free,,,,,,,,,,false,,,,,,,,LD,false
ELEC,Larry H Miller Nissan - Arapahoe,10030 E Arapahoe Rd,,Centennial,CO,80112,,303-790-7333  855-900-7584,E,,Public - Call ahead,Dealership business hours,,,,,,2,1,,Non-Networked,,200-9,39.594525,-104.872435,2022-03-07,46524,2023-02-14 15:54:11 UTC,P,,,2012-01-31,,,,,CHADEMO J1772 J1772COMBO,US,,,,Public - Appeler à l'avance,,public,CALL,,CAR_DEALER,,,,,,,Free,,,,,,,,,,false,,,,,,,,LD,false
ELEC,South Colorado Springs Nissan,1333 S Academy Blvd,,Colorado Springs,CO,80916,,719-550-3030,E,,Public - Call ahead,Dealership business hours,,,,,,1,1,,Non-Networked,,GPS,38.81233,-104.756795,2022-03-07,46526,2023-02-14 15:54:11 UTC,P,,,2012-01-31,,,,,CHADEMO J1772 J1772COMBO,US,,,,Public - Appeler à l'avance,,public,CALL,,CAR_DEALER,,,,,,,Free,,,,,,,,,,false,,,,,,,,LD,false
ELEC,Woodmen Nissan,6840 Vincent Dr,,Colorado Springs,CO,80918,,719-234-1000,E,,Public - Call ahead,Dealership business hours,,,,,,1,1,,Non-Networked,,GPS,38.931011,-104.811075,2020-06-09,46528,2023-02-15 22:45:41 UTC,P,,,2012-01-31,,,,,CHADEMO J1772 J1772COMBO,US,,,,Public - Appeler à l'avance,,public,CALL,,CAR_DEALER,,,,,,,Free,,,,,,,,,,false,,,,,,,,LD,false
ELEC,Nissan of Durango,20704 Highway 160,,Durango,CO,81303,,970-259-3940,E,,Public - Call ahead,Dealership business hours,,,,,,1,,,Non-Networked,,GPS,37.269708,-107.907728,2020-06-09,46532,2023-02-15 22:45:41 UTC,P,,,2012-01-31,,,,,J1772,US,,,,Public - Appeler à l'avance,,public,CALL,,CAR_DEALER,,,,,,,Free,,,,,,,,,,false,,,,,,,,,false
ELEC,Greeley Nissan,2625 35th Ave,,Greeley,CO,80634,,970-353-5333  855-900-7584,E,,Public - Call ahead,Dealership business hours,,,,,,1,1,,Non-Networked,,200-9,40.39443,-104.736034,2022-03-07,46537,2023-02-14 15:54:11 UTC,P,,,2012-01-31,,,,,CHADEMO J1772 J1772COMBO,US,,,,Public - Appeler à l'avance,,public,CALL,,CAR_DEALER,,,,,,,Free,,,,,,,,,,false,,,,,,,,LD,false
ELEC,Empire Lakewood Nissan,14707 W Colfax Ave,,Lakewood,CO,80401,,303-232-8881  855-900-7584,E,,Public - Call ahead,Dealership business hours,,,,,,1,,,Non-Networked,,200-8,39.732606,-105.163711,2022-03-07,46538,2023-02-14 15:54:11 UTC,P,,,2012-01-31,,,,,J1772,US,,,,Public - Appeler à l'avance,,public,CALL,,CAR_DEALER,,,,,,,Free,,,,,,,,,,false,,,,,,,,LD,false
ELEC,Empire Littleton Nissan,5067 S Wadsworth Blvd,,Littleton,CO,80123,,720-458-8412,E,,Public - Call ahead,Dealership business hours,,,,,,1,,,Non-Networked,,200-8,39.626641,-105.090506,2020-06-09,46541,2023-02-15 22:45:41 UTC,P,,,2012-01-31,,,,,J1772,US,,,,Public - Appeler à l'avance,,public,CALL,,CAR_DEALER,,,,,,,Free,,,,,,,,,,false,,,,,,,,,false
ELEC,Valley Nissan,1005 Ken Pratt Blvd,,Longmont,CO,80501,,303-776-0443,E,,Public - Call ahead,Dealership business hours,,,,,,1,1,,Non-Networked,,GPS,40.151989,-105.108644,2022-03-07,46543,2023-02-14 15:54:11 UTC,P,,,2012-01-31,,,,,CHADEMO J1772 J1772COMBO,US,,,,Public - Appeler à l'avance,,public,CALL,,CAR_DEALER,,,,,,,Free,,,,,,,,,,false,,,,,,,,LD,false
ELEC,Dave Solon Nissan,2525 W US Highway 50,,Pueblo,CO,81008,,719-545-4145,E,,Public - Call ahead,Dealership business hours,,,,,,1,1,,Non-Networked,,GPS,38.312144,-104.640891,2022-03-07,46545,2023-02-14 15:54:11 UTC,P,,,2012-01-31,,,,,CHADEMO J1772 J1772COMBO,US,,,,Public - Appeler à l'avance,,public,CALL,,CAR_DEALER,,,,,,,Free,,,,,,,,,,false,,,,,,,,LD,false
BD,Space Station Gas,644 Lincoln Ave,,Steamboat Springs,CO,80487,,970-879-1811,E,,Public - Credit card after hours,6am-11pm daily,A Cash Checks D M V,B20,,,,,,,,,200-8,40.485303,-106.832843,2022-11-10,48453,2023-02-14 15:54:11 UTC,P,,,2012-06-01,,,,,,US,,,,Public - Carte de crédit après les heures d'ouverture,,public,CREDIT_CARD_AFTER_HOURS,,CONVENIENCE_STORE,,,,,,,,,,,,,,,,,false,,,,,,,,HD,
E85,Kum & Go #657,2190 Vickers Dr,,Colorado Springs,CO,80918,,719-219-0324,E,,Public,24 hours daily,A Cash D FuelMan M V Voyager Wright_Exp,,,,,,,,,,200-8,38.915256,-104.788063,2023-03-08,48533,2023-03-08 17:16:33 UTC,P,,,2012-06-01,,,,true,,US,,,,Public,,public,,,CONVENIENCE_STORE,,,,,,"[""E15""]",,,,,,,,,,,false,,,,,,,,,
E85,Kum & Go #665,1206 Interquest Pkwy,,Colorado Springs,CO,80921,,719-219-0697,E,,Public,24 hours daily,A Cash D FuelMan M V Voyager Wright_Exp,,,,,,,,,,GPS,38.990597,-104.8073,2023-03-08,49555,2023-03-08 17:16:33 UTC,P,,,2012-10-12,,,,true,,US,,,,Public,,public,,,CONVENIENCE_STORE,,,,,,"[""E15""]",,,,,,,,,,,false,,,,,,,,,
E85,Kum & Go #667,7385 Duryea Rd,,Colorado Springs,CO,80923,,719-445-5041,E,,Public,24 hours daily,A Cash D M V Voyager Wright_Exp,,,,,,,,,,200-9,38.939158,-104.729892,2023-03-08,49556,2023-03-08 17:16:33 UTC,P,,,2012-10-12,,,,true,,US,,,,Public,,public,,,CONVENIENCE_STORE,,,,,,"[""E15""]",,,,,,,,,,,false,,,,,,,,,
ELEC,Red Rock Nissan,2582 Highway 6 and 50,,Grand Junction,CO,81501,,970-644-8020,E,,Public - Call ahead,Dealership business hours,,,,,,1,,,Non-Networked,,200-9,39.074359,-108.572597,2020-06-09,50003,2023-02-15 22:45:41 UTC,P,,,2012-10-25,,,,,J1772,US,,,,Public - Appeler à l'avance,,public,CALL,,CAR_DEALER,,,,,,,Free,,,,,,,,,,false,,,,,,,,,false
ELEC,City of Denver - Cultural Center Complex Garage,65 W 12th Ave,Located on level 3 by the elevator,Denver,CO,80204,,720-865-3164,E,,Public,Garage business hours; pay lot,,,,,,2,,,Non-Networked,,200-9,39.735935,-104.988403,2022-01-10,50065,2022-02-10 19:42:29 UTC,LG,,,2012-12-01,,,,,J1772,US,,,,Public,,public,,,PAY_GARAGE,,,,,,,Free,,,,,,,,,,false,,,,,,,,LD,false
ELEC,City of Denver - Denver Performing Arts Center Garage,1055 13th St,Located on level 4 by the elevators,Denver,CO,80204,,720-865-3164,E,,Public,24 hours daily; pay lot,,,,,,2,1,,Non-Networked,,GPS,39.743919,-104.998075,2022-01-10,50066,2022-02-10 19:42:29 UTC,LG,,,2012-12-01,,,,,CHADEMO J1772 J1772COMBO,US,,,,Public,,public,,,PAY_GARAGE,,,,,,,Free,,,,,,,,,,false,,,,,,,,LD,false
E85,Kum & Go #658,6125 Barnes Rd,,Colorado Springs,CO,80922,,719-219-0685,E,,Public,24 hours daily,A Cash D FuelMan M V Voyager Wright_Exp,,,,,,,,,,200-9,38.894448,-104.713785,2023-03-08,50112,2023-03-08 17:16:33 UTC,P,,,2012-12-01,,,,true,,US,,,,Public,,public,,,CONVENIENCE_STORE,,,,,,"[""E15""]",,,,,,,,,,,false,,,,,,,,,
E85,Kum & Go #663,5771 N Carefree Cir,,Colorado Springs,CO,80917,,719-219-0223,E,,Public,24 hours daily,A Cash D FuelMan M V Voyager Wright_Exp,,,,,,,,,,200-9,38.884618,-104.721297,2023-03-08,50113,2023-03-08 17:16:33 UTC,P,,,2012-12-01,,,,true,,US,,,,Public,,public,,,CONVENIENCE_STORE,,,,,,"[""E15""]",,,,,,,,,,,false,,,,,,,,,
E85,Kum & Go #672,3025 Hancock Expy,,Colorado Springs,CO,80916,,719-473-8296,E,,Public,24 hours daily,A Cash D FuelMan M V Voyager Wright_Exp,,,,,,,,,,GPS,38.794458,-104.768181,2023-03-08,50303,2023-03-08 17:16:33 UTC,P,,,2012-12-21,,,,true,,US,,,,Public,,public,,,CONVENIENCE_STORE,,,,,,"[""E15""]",,,,,,,,,,,false,,,,,,,,,
E85,Kum & Go #670,8050 Fountain Mesa Rd,,Fountain,CO,80817,,719-382-9018,E,,Public,24 hours daily,A Cash Checks D FuelMan M V Voyager Wright_Exp,,,,,,,,,,200-9,38.715239,-104.701984,2023-03-08,50304,2023-03-08 17:16:33 UTC,P,,,2012-12-14,,,,true,,US,,,,Public,,public,,,CONVENIENCE_STORE,,,,,,"[""E15""]",,,,,,,,,,,false,,,,,,,,,
E85,Kum & Go #995,1600 E Eisenhower Blvd,,Loveland,CO,80537,,970-612-0112,E,,Public,24 hours daily,A Cash D FuelMan M V Voyager Wright_Exp,,,,,,,,,,200-9,40.4069,-105.05401,2023-03-08,51156,2023-03-08 17:16:33 UTC,P,,,2013-02-15,,,,false,,US,,,,Public,,public,,,CONVENIENCE_STORE,,,,,,,,,,,,,,,,,false,,,,,,,,,
E85,Kum & Go #921,120 E 1st St,,Rifle,CO,81650,,970-625-5185,E,,Public,24 hours daily,A Cash D FuelMan M V Voyager Wright_Exp,,,,,,,,,,200-9,39.529977,-107.782568,2023-03-08,51157,2023-03-08 17:16:33 UTC,P,,,2013-02-15,,,,false,,US,,,,Public,,public,,,CONVENIENCE_STORE,,,,,,,,,,,,,,,,,false,,,,,,,,,
LPG,Blue Flame Gas Co,423 E Enterprise Dr,,Pueblo West,CO,81007,,719-543-7736,E,,Public,"8am-5pm M-F, 8am-12pm Sat",A Cash D M V,,,,,,,,,,GPS,38.33195413828761,-104.728043222229,2022-11-10,51749,2023-02-14 15:54:11 UTC,P,,,2013-05-15,,,true,,,US,,,,Public,,public,,,FUEL_RESELLER,,,,,,,,,"[""ACME""]",,,,,,,,false,,,,,,,,HD,
ELEC,Town of Carbondale - Town Hall,511 Colorado Ave,"Located on 4th St, just north of the intersection with Colorado Ave, near the flag pole",Carbondale,CO,81623,,970-963-2733,E,,Public,24 hours daily,,,,,,1,,,Non-Networked,,GPS,39.401918,-107.211389,2023-02-13,52101,2023-02-14 15:54:11 UTC,LG,,,2013-06-01,,,,,J1772,US,,,,Public,,public,,,MUNI_GOV,,,,,,,Free,,,,,,,,,,false,,,,,,,,LD,false
ELEC,Odell Brewing,800 E Lincoln,,Fort Collins,CO,80524,,970-498-9070,E,,Public,24 hours daily,,,,,,1,,,Non-Networked,,200-9,40.589483,-105.063519,2022-01-10,52620,2022-02-10 19:42:29 UTC,P,,,2013-07-01,,,,,J1772,US,,,,Public,,public,,,BREWERY_DISTILLERY_WINERY,,,,,,,Free,,,,,,,,,,false,,,,,,,,LD,false
ELEC,City of Loveland - Civic Center,500 E 3rd St,South Side of Parking Lot,Loveland,CO,80537,,970-962-3000,E,,Public - Credit card at all times,24 hours daily,A D M V,,,,,2,,,Non-Networked,,200-8,40.394378,-105.070159,2021-12-09,52642,2022-02-10 19:42:29 UTC,P,,,2013-08-01,,,,,J1772,US,,,,Public - Carte de crédit en tout temps,,public,CREDIT_CARD_ALWAYS,,MUNI_GOV,,,,,,,$1 per hour,,,,,,,,,,false,,,,,,,,LD,false
ELEC,City of Loveland - McKee Medical Center,2000 N Boise Ave,NW Parking Lot,Loveland,CO,80538,,970-962-3000  970-669-4640,E,,Public - Credit card at all times,24 hours daily,A D M V,,,,,2,,,Non-Networked,,GPS,40.4134,-105.05171,2021-12-09,52643,2022-02-10 19:42:29 UTC,P,,,2013-08-01,,,,,J1772,US,,,,Public - Carte de crédit en tout temps,,public,CREDIT_CARD_ALWAYS,,HOSPITAL,,,,,,,$1 per hour,,,,,,,,,,false,,,,,,,,LD,false
ELEC,City of Loveland - Public Library,300 Adams St,SE Corner of Parking Lot,Loveland,CO,80537,,970-962-3000,E,,Public - Credit card at all times,24 hours daily,A D M V,,,,,2,,,Non-Networked,,GPS,40.394126,-105.0691219,2021-12-09,52644,2022-02-10 19:42:29 UTC,P,,,2021-06-01,,,,,J1772,US,,,,Public - Carte de crédit en tout temps,,public,CREDIT_CARD_ALWAYS,,LIBRARY,,,,,,,$1 per hour,,,,,,,,,,false,,,,,,,,LD,false
ELEC,City of Loveland - Service Center,200 N Wilson Ave,NW Corner of Parking Lot,Loveland,CO,80537,,,E,,Public - Credit card at all times,24 hours daily,A D M V,,,,,2,,,Non-Networked,,200-8,40.393945,-105.115875,2022-11-10,52645,2023-02-14 15:54:11 UTC,P,,,2013-08-01,,,,,J1772,US,,,,Public - Carte de crédit en tout temps,,public,CREDIT_CARD_ALWAYS,,MUNI_GOV,,,,,,,$1 per hour,,,,,,,,,,false,,,,,,,,LD,false
E85,Kum & Go #669,6735 N Carefree Cir,,Colorado Springs,CO,80922,,719-434-3869,E,,Public,24 hours daily,A Cash D FuelMan M V Voyager Wright_Exp,,,,,,,,,,200-8,38.886479,-104.702476,2023-03-08,53336,2023-03-08 17:16:33 UTC,P,,,2013-06-15,,,,true,,US,,,,Public,,public,,,CONVENIENCE_STORE,,,,,,"[""E15""]",,,,,,,,,,,false,,,,,,,,,
E85,Corner Store #1129,895 W 136th Ave,,Broomfield,CO,80023,,303-280-3238,E,,Public,24 hours daily,A Cash D M V,,,,,,,,,,200-8,39.94365,-104.99967,2022-11-10,53818,2023-09-21 21:33:34 UTC,P,,,2013-12-15,,,,false,,US,,,,Public,,public,,,CONVENIENCE_STORE,,,,,,,,,,,,,,,,,false,,,,,,,,MD,
E85,Kum & Go #673,620 E Fillmore St,,Colorado Springs,CO,80907,,719-219-0726,E,,Public,24 hours daily,A Cash D FuelMan M V Voyager Wright_Exp,,,,,,,,,,200-9,38.874737,-104.813485,2023-03-08,53819,2023-03-08 17:16:33 UTC,P,,,2013-12-15,,,,true,,US,,,,Public,,public,,,CONVENIENCE_STORE,,,,,,"[""E15""]",,,,,,,,,,,false,,,,,,,,,
E85,Corner Store #4074,5601 Quebec St,,Commerce City,CO,80022,,303-288-2060,E,,Public,24 hours daily,A Cash D M V,,,,,,,,,,200-8,39.79875,-104.90424,2022-11-10,53820,2023-09-21 21:24:35 UTC,P,,,2013-12-15,,,,false,,US,,,,Public,,public,,,CONVENIENCE_STORE,,,,,,,,,,,,,,,,,false,,,,,,,,MD,
E85,Western Convenience Store,2714 Thatcher Ave,,Pueblo,CO,81004,,719-542-1250,E,,Public,24 hours daily,A Cash D M V,,,,,,,,,,200-8,38.25839,-104.64361,2022-11-10,53822,2023-09-21 21:42:29 UTC,P,,,2013-12-15,,,,false,,US,,,,Public,,public,,,CONVENIENCE_STORE,,,,,,,,,,,,,,,,,false,,,,,,,,MD,
ELEC,City of Boulder - Boulder Reservoir,5565 N 51st St,,Boulder,CO,80301,,303-441-3461,E,,Public,24 hours daily,,,,,1,1,,,Non-Networked,,200-8,40.077325,-105.239377,2022-01-10,53935,2022-02-10 19:42:29 UTC,LG,,,2013-06-01,,,,,J1772 NEMA520,US,,,,Public,,public,,,PARK,,,,,,,Free,,,,,,,,,,false,,,,,,,,LD,false
ELEC,City of Denver - Colorado Convention Center Garage,1104 Champa St,"Parking space 1081. Level P-1, half way down the level near the freight elevator",Denver,CO,80202,,720-865-3164,E,,Public,24 hours daily,,,,,,1,,,Non-Networked,,GPS,39.742308,-104.997556,2022-01-10,53944,2022-02-10 19:42:29 UTC,LG,,,2013-06-01,,,,,J1772,US,,,,Public,,public,,,PAY_GARAGE,,,,,,,Free,,,,,,,,,,false,,,,,,,,LD,false
ELEC,City of Denver - Denver Justice Center Garage,490 W 14th Ave,"Level 2, at the top of the entrance ramp, SW corner",Denver,CO,80204,,720-865-3164,E,,Public,24 hours daily,,,,,,1,,,Non-Networked,,200-8,39.738477,-104.994018,2022-01-10,53945,2022-02-10 19:42:29 UTC,LG,,,2020-07-01,,,,,J1772,US,,,,Public,,public,,,PAY_GARAGE,,,,,,,Free,,,,,,,,,,false,,,,,,,,LD,false
ELEC,City of Denver - Firehouse Parking Lot,1322 Blake St,Located in the Southwest corner of the lot,Denver,CO,80204,,720-865-3164,E,,Public,24 hours daily; pay lot,,,,,,1,,,Non-Networked,,200-9,39.74816,-105.001949,2022-01-10,53946,2022-02-10 19:42:29 UTC,LG,,,2020-07-01,,,,,J1772,US,,,,Public,,public,,,PAY_LOT,,,,,,,Free,,,,,,,,,,false,,,,,,,,LD,false
ELEC,Denver International Airport - Garage West,8500 Peña Blvd,"Located on level 1 in rows E, F, and G",Denver,CO,80249,,303-342-7275  303-342-4645,E,,Public,24 hours daily; pay lot,,,,,15,10,,,Non-Networked,,GPS,39.849451,-104.676519,2021-12-09,54068,2022-02-10 19:42:29 UTC,P,,,2013-11-04,,,,,J1772,US,,,,Public,,public,,,AIRPORT,,,,,,,Free,,,,,,,,,,false,,,,,,,,,false
ELEC,American Lung Association - Denver Clean Cities,5600 Greenwood Plaza Blvd,,Greenwood Village,CO,80111,,303-388-4327,E,,Public,8am-5pm M-F; must obtain key from main office,,,,,,2,,,Non-Networked,,GPS,39.614825,-104.898181,2022-01-10,54069,2022-02-10 19:42:29 UTC,P,,,2013-08-12,,,,,J1772,US,,,,Public,,public,,,OFFICE_BLDG,,,,,,,Free,,,,,,,,,,false,,,,,,,,LD,false
LPG,U-Haul,2175 Victor Pl,Southbound Powers south of Constitution before Palmer Park,Colorado Springs,CO,80915,,719-574-5168,E,,Public,"7am-7pm M-Th, 7am-8pm F, 7am-7pm Sat, 9am-5pm Sun",A Cash Checks D M V,,,,,,,,,,200-9,38.862502,-104.721094,2023-02-13,60082,2023-02-14 15:54:11 UTC,P,,,2014-01-31,,,true,,,US,,,,Public,,public,,,RENTAL_CAR_RETURN,,,,,,,,,"[""ACME"", ""QUICK_CONNECT""]",,,,,,,,false,,,,,,,,HD,
E85,Kum & Go #674,1021 S Nevada,,Colorado Springs,CO,80903,,719-362-8082,E,,Public,24 hours daily,A Cash D FuelMan M V Voyager Wright_Exp,,,,,,,,,,200-9,38.818602,-104.822111,2023-03-08,60086,2023-03-08 17:16:33 UTC,P,,,2013-11-15,,,,true,,US,,,,Public,,public,,,CONVENIENCE_STORE,,,,,,"[""E15""]",,,,,,,,,,,false,,,,,,,,,
CNG,Clean Energy - Rex Oil Conoco,6185 N Broadway,Near the intersection of 62nd Ave and Broadway. The location is northwest of the I-70/I-25 interchange and just south of Highway 36.,Denver,CO,80216,,866-809-4869,E,,Public - Credit card at all times,24 hours daily; call 866-809-4869 for Clean Energy card,A CleanEnergy D FleetOne FuelMan M V Voyager Wright_Exp,,Q,3000 3600,,,,,,,200-9,39.808528,-104.988185,2023-07-11,60947,2023-07-11 18:28:56 UTC,P,,,2014-11-03,,HD,,,,US,,,,Public - Carte de crédit en tout temps,,public,CREDIT_CARD_ALWAYS,,GAS_STATION,1,NONE,,,,,,,,,,Q,3000 3600,HD,,,false,,,,,,true,,HD,
ELEC,Ken's Automotive Repair,1219 N College,Located by bike racks,Fort Collins,CO,80524,,970-484-6001,E,,Public,"7:30am-5pm M-F, 8am-3pm Sat",,,,,,1,,,Non-Networked,,200-9,40.603108,-105.077107,2021-12-09,61337,2022-02-10 19:42:29 UTC,P,,,2014-02-01,,,,,J1772,US,,,,Public,,public,,,AUTO_REPAIR,,,,,,,Free,,,,,,,,,,false,,,,,,,,LD,false
LPG,Comfurt Gas,655 Gregg Dr,,Buena Vista,CO,81211,,719-395-8445,E,,Public,7am-4pm M-F,Cash Checks D Debit M V,,,,,,,,,,200-9,38.824587,-106.136449,2022-11-10,61444,2023-02-14 15:54:11 UTC,P,,,2014-04-23,,,true,,,US,,,,Public,,public,,,FUEL_RESELLER,,,,,,,,,"[""ACME"", ""QUICK_CONNECT""]",,,,,,,,false,,,,,,,,MD,
E85,Kum & Go #942,6503 W 29th St,,Greeley,CO,80634,,970-330-0313,E,,Public,24 hours daily,A Cash D FuelMan M V Voyager Wright_Exp,,,,,,,,,,200-9,40.391002,-104.785635,2023-03-08,61539,2023-03-08 17:16:33 UTC,P,,,2014-04-01,,,,true,,US,,,,Public,,public,,,CONVENIENCE_STORE,,,,,,"[""E15""]",,,,,,,,,,,false,,,,,,,,,
E85,Kum & Go #4923,705 Taughenbaugh Blvd,,Rifle,CO,81650,,970-625-5062,E,,Public,24 hours daily,A Cash D FuelMan M V Voyager Wright_Exp,,,,,,,,,,200-9,39.522211,-107.777194,2023-03-08,61540,2023-03-08 17:16:33 UTC,P,,,2014-04-01,,,,false,,US,,,,Public,,public,,,CONVENIENCE_STORE,,,,,,,,,,,,,,,,,false,,,,,,,,,
ELEC,Colorado State University - Powerhouse Energy Campus,430 N College Ave,,Fort Collins,CO,80524,,970-491-4781,E,,Public,24 hours daily,,,,,,1,,,Non-Networked,,200-9,40.594292,-105.075657,2022-11-10,61549,2023-02-14 15:54:11 UTC,SG,,,2014-02-01,,,,,J1772,US,,,,Public,,public,,,COLLEGE_CAMPUS,,,,,,,Free,,,,,,,,,,false,,,,,,,,LD,true
ELEC,Colorado Mountain College - Carbondale,690 Colorado Ave,,Carbondale,CO,81623,,970-963-2172,E,,Public,8am-9pm daily; charging not available 4pm-9pm M-Th,,,,,,2,,,Non-Networked,,200-8,39.401649,-107.214095,2021-07-14,62047,2023-08-08 16:10:34 UTC,P,,,2014-06-12,,,,,J1772,US,,,,Public,,public,,,COLLEGE_CAMPUS,,,,,,,Free,,,,,,,,,,false,,,,,,,,,false
ELEC,Colorado Mountain College - Breckenridge,107 Dennison Placer Rd,,Breckenridge,CO,84024,,970-453-6757,E,,Public,7am-9pm daily,,,,,,2,,,Non-Networked,,GPS,39.513986,-106.050975,2021-07-14,62048,2023-08-08 16:10:34 UTC,P,,,2014-06-12,,,,,J1772,US,,,,Public,,public,,,COLLEGE_CAMPUS,,,,,,,Free,,,,,,,,,,false,,,,,,,,,false
ELEC,Colorado Mountain College - Rifle,3695 Airport Rd,,Rifle,CO,81650,,970-625-6900,E,,Public,7am-9pm daily,,,,,,2,,,Non-Networked,,200-8,39.525883,-107.745102,2021-07-14,62049,2023-08-08 16:10:34 UTC,P,,,2014-06-23,,,,,J1772,US,,,,Public,,public,,,COLLEGE_CAMPUS,,,,,,,Free,,,,,,,,,,false,,,,,,,,,false
ELEC,Colorado Mountain College - Leadville,901 S Highway 24,,Leadville,CO,80461,,719-486-2015,E,,Public,7am-9pm daily,,,,,,1,,,Non-Networked,,GPS,39.23623432378932,-106.3024708889771,2021-07-14,62050,2023-08-08 16:10:34 UTC,P,,,2014-06-12,,,,,J1772,US,,,,Public,,public,,,COLLEGE_CAMPUS,,,,,,,Free,,,,,,,,,,false,,,,,,,,,false
E85,Kum & Go #668,3091 N Chestnut St,,Colorado Springs,CO,80907,,719-424-4580,E,,Public,24 hours daily,A Cash D FuelMan M V Voyager Wright_Exp,,,,,,,,,,GPS,38.876961,-104.83703,2023-03-08,62260,2023-03-08 17:16:33 UTC,P,,,2014-06-01,,,,true,,US,,,,Public,,public,,,CONVENIENCE_STORE,,,,,,"[""E15""]",,,,,,,,,,,false,,,,,,,,,
CNG,Sparq - Trinidad,806 E Goddard Ave,"Immediate I-25 Access, Exit 15/US-160E toward Goddard Ave. Co-located with Shell convenience store.",Trinidad,CO,81082,,844-772-7764,E,,Public - Credit card at all times,24 hours daily,FuelMan GasCard M V Wright_Exp,,Q,3600,,,,,,,200-9,37.183969,-104.499646,2023-01-10,62268,2023-07-12 19:55:14 UTC,P,,,2015-10-14,,HD,,,,US,,,,Public - Carte de crédit en tout temps,,public,CREDIT_CARD_ALWAYS,,CONVENIENCE_STORE,2,NONE,,,,,,,,,,Q,3600,HD,,,false,,,,,,true,,HD,
ELEC,Foothills Mall,215 E Foothills Pkwy,Located on the west side of second floor of parking garage,Fort Collins,CO,80525,,970-226-5555,E,,Public,24 hours daily,,,,,,1,,,Non-Networked,,GPS,40.54235,-105.071239,2021-11-04,62279,2022-02-10 19:42:29 UTC,P,,,2016-01-01,,,,,J1772,US,,,,Public,,public,,,SHOPPING_MALL,,,,,,,Free,,,,,,,,,,false,,,,,,,,LD,false
ELEC,Town of Parachute - Rest Area,170 Green St,Green Street and Highway 6,Parachute,CO,81623,,970-285-7630,E,,Public,24 hours daily,,,,,,1,,,Non-Networked,,GPS,39.455231,-108.050053,2022-01-10,62285,2022-02-10 19:42:29 UTC,LG,,,2014-06-13,,,,,J1772,US,,,,Public,,public,,,REST_STOP,,,,,,,Free,,,,,,,,,,false,,,,,,,,LD,false
ELEC,City of Montrose - Centennial Plaza,501 S 1st St,Located in public parking lot on the East side of the Centennial Plaza and the Montrose City Hall,Montrose,CO,81401,,970-240-1400,E,,Public,24 hours daily,,,,,,2,,,Non-Networked,,GPS,38.479653,-107.874886,2021-11-04,62391,2022-02-10 19:42:29 UTC,LG,,,2014-05-27,,,,,J1772,US,,,,Public,,public,,,MUNI_GOV,,,,,,,Free,,,,,,,,,,false,,,,,,,,LD,false
CNG,GAIN Clean Fuel - Aurora,19401 E 32nd Pkwy,,Aurora,CO,80011,,800-438-7912,E,,Public - Credit card at all times,24 hours daily; contact 920-243-5856 to set up account; Also accepts Diners Club and JCB,A CFN Comdata D EFS FleetOne GasCard M TCH Tchek V Voyager Wright_Exp,,Q,3600,,,,,,,200-8,39.75968,-104.761488,2023-04-06,62543,2023-05-30 18:46:28 UTC,P,,,2014-07-11,,HD,,,,US,,,,Public - Carte de crédit en tout temps,,public,CREDIT_CARD_ALWAYS,,STANDALONE_STATION,2,,975,36000,,,,,,,,Q,3600,HD,,,false,,,,,,,,HD,
LPG,Selph's Propane Inc,4640 Highway 160,,Pagosa Springs,CO,81147,,970-731-3737,E,,Public,8am-5pm M-F,Cash Checks D M V,,,,,,,,,,GPS,37.25022893821652,-107.0836995618324,2022-11-10,62749,2023-02-14 15:54:11 UTC,P,,,2014-07-31,,,true,,,US,,,,Public,,public,,,FUEL_RESELLER,,,,,,,,,"[""ACME""]",,,,,,,,false,,,,,,,,HD,
CNG,Stirk CNG - Clean Energy - Sapp Bros Travel Center,7120 E 49th Ave,"I-70 Exit 278, 279 and I-270 Exit 4",Denver,CO,80022,,303-289-3930,E,,Public,24 hours daily,A Cash Checks CleanEnergy Comdata D EFS FleetOne FuelMan M Proprietor TCH V Voyager Wright_Exp,,Q,3600,,,,,,,200-9,39.78448,-104.904545,2022-12-13,62773,2023-05-30 18:46:28 UTC,P,,,2015-12-21,,MD,,,,US,,,,Public,,public,,,TRAVEL_CENTER,2,,1300,58000,,,,,,,,Q,3600,MD,,,false,,,,,,,,MD,
LPG,Clark's Propane Service,11809 N 75th St,Corner N 75th St and Hygiene Rd (17th St) behind Mary's Market,Hygiene,CO,80533,,303-776-5763,E,,Public,8am-6pm M-Sat,Cash Checks D Debit M V,,,,,,,,,,200-9,40.189064,-105.179408,2022-12-13,62823,2023-02-14 15:54:11 UTC,P,,,2014-08-08,,,true,,,US,,,,Public,,public,,,FUEL_RESELLER,,,,,,,,,"[""ACME""]",,,,,,,,false,,,,,,,,HD,
ELEC,University of Colorado - Colorado Springs - Alpine Parking Garage,4622 Stanton Rd,Located on the 1st floor-visitor parking,Colorado Springs,CO,80918,,,E,,Public,24 hours daily; pay lot,,,,,,2,,,Non-Networked,,GPS,38.897629,-104.80704,2022-11-10,63024,2023-02-14 15:54:11 UTC,P,,,2014-06-01,,,,,J1772,US,,,,Public,,public,,,COLLEGE_CAMPUS,,,,,,,$1 per hour,,,,,,,,,,false,,,,,,,,LD,false
ELEC,COLO STATE UNIV LAUREL 3,933-951 W Laurel St,,Fort Collins,CO,80521,,888-758-4389,E,,Public,24 hours daily,,,,,,2,,,ChargePoint Network,http://www.chargepoint.com/,GPS,40.577977,-105.093136,2023-09-28,63185,2023-09-28 00:27:04 UTC,,,,2014-09-03,,,,,J1772,US,,,,Public,,public,,,,,,,,,,,,,,,,,,,,,,,,,,,,,false
ELEC,TinkerMill Longmont Makerspace,1840 Delaware Pl,"Located at Delaware Pl off of Sunset Dr, next to GE Energy and behind the Boulder County Fairgrounds",Longmont,CO,80501,,720-204-3090,E,,Public,"24 hours daily for TinkerMill members, 9am-9pm daily for non-members",,,,,,1,,,Non-Networked,,200-9,40.155594,-105.124506,2021-12-09,63245,2022-02-10 19:42:29 UTC,P,,,2014-08-01,,,,,J1772,US,,,,Public,,public,,,OFFICE_BLDG,,,,,,,Free,,,,,,,,,,false,,,,,,,,LD,false
ELEC,AC GC 3,4430 S Adams County Pkwy,,Brighton,CO,80601,,888-758-4389,E,,Public,24 hours daily,,,,,,2,,,ChargePoint Network,http://www.chargepoint.com/,GPS,39.924079,-104.811713,2023-09-28,63304,2023-09-28 00:30:38 UTC,,,,2014-09-16,,,,,J1772,US,,,,Public,,public,,,,,,,,,,,,,,,,,,,,,,,,,,,,,false
ELEC,Larry H Miller Nissan,1320 Plum Valley Ln,,Highlands Ranch,CO,80129,,720-274-5200,E,,Public - Call ahead,Dealership business hours,,,,,,1,1,,Non-Networked,,GPS,39.560813,-105.004869,2022-03-07,63364,2023-02-14 15:54:11 UTC,P,,,2013-02-01,,,,,CHADEMO J1772 J1772COMBO,US,,,,Public - Appeler à l'avance,,public,CALL,,CAR_DEALER,,,,,,,Free,,,,,,,,,,false,,,,,,,,LD,false
ELEC,Mike Maroone Chevrolet South,230 N Academy Blvd,Located at the corner of Bijou and Academy,Colorado Springs,CO,80909,,719-596-3040,E,,Public - Call ahead,Dealership business hours; for customer use only,,,,,,2,,,Non-Networked,,GPS,38.836576,-104.758621,2021-11-04,63373,2022-04-28 20:01:31 UTC,P,,,2014-07-12,,,,,J1772,US,,,,Public - Appeler à l'avance,,public,CALL,,CAR_DEALER,,,,,,,Free,,,,,,,,,,true,,,,,,,,LD,false
ELEC,Larry H Miller Nissan - 104,2400 W 104th Ave,,Denver,CO,80234,,303-469-1721  855-900-7584,E,,Public - Call ahead,Dealership business hours,,,,,,1,1,,Non-Networked,,GPS,39.884399,-105.0158,2022-03-07,63407,2023-02-14 15:54:11 UTC,P,,,2011-11-29,,,,,CHADEMO J1772 J1772COMBO,US,,,,Public - Appeler à l'avance,,public,CALL,,CAR_DEALER,,,,,,,Free,,,,,,,,,,false,,,,,,,,LD,false
CNG,Sparq - Pueblo,620 W 4th St,Six blocks east of I-25 (Exit 98B).,Pueblo,CO,81003,,844-772-7764,E,,Public - Credit card at all times,24 hours daily,A D FuelMan GasCard M V Voyager Wright_Exp,,Q,3600,,,,,,,200-9,38.270299,-104.615724,2023-01-10,63599,2023-07-12 19:55:14 UTC,P,,,2015-07-01,,MD,,,,US,,,,Public - Carte de crédit en tout temps,,public,CREDIT_CARD_ALWAYS,,STANDALONE_STATION,2,NONE,,,,,,,,,,Q,3600,MD,,,false,,,,,,true,,MD,
CNG,X3Energy,14827 Weld County Rd 42,Station is located at Highway 85 and WCR 42,Gilcrest,CO,80623,,844-304-9800,E,,Public - Credit card at all times,24 hours daily,A D M Proprietor V Voyager Wright_Exp,,Q,3600,,,,,,,200-8,40.289906,-104.775176,2023-01-10,63817,2023-05-30 18:46:28 UTC,P,,,2014-09-05,,HD,,,,US,,,,Public - Carte de crédit en tout temps,,public,CREDIT_CARD_ALWAYS,,SCHOOL,1,NONE,,,,,,,,,,Q,3600,HD,,,false,,,,,,true,,HD,
ELEC,Colorado Mountain College - Glenwood Springs,815 Cooper St,,Glenwood Springs,CO,81601,,970-945-8405,E,,Public,5am-7pm daily,,,,,,1,,,Non-Networked,,GPS,39.54647,-107.323692,2021-07-14,64367,2023-08-08 16:10:34 UTC,P,,,2014-09-01,,,,,J1772,US,,,,Public,,public,,,COLLEGE_CAMPUS,,,,,,,Free,,,,,,,,,,false,,,,,,,,,false
ELEC,Eagle County,500 Broadway St,Intersection of Broadway & 5th St.,Eagle,CO,81631,,970-328-8766,E,,Public,24 hours daily,,,,,,,1,,Non-Networked,,200-8,39.652053,-106.827821,2023-01-10,64699,2023-02-14 15:54:11 UTC,LG,,,2019-07-25,,,,,CHADEMO J1772COMBO,US,,,,Public,,public,,,MUNI_GOV,,,,,,,Free,,,,,,,,,,false,,,,,,,,LD,false
ELEC,CCD CHARGING JUSTICE CENTER,1370 Elati St,,Denver,CO,80204,,888-758-4389,E,,Public,24 hours daily,,,,,,2,,,ChargePoint Network,http://www.chargepoint.com/,GPS,39.737959,-104.993949,2023-09-28,65434,2023-09-28 00:23:28 UTC,,,,2015-01-28,,,,,J1772,US,,,,Public,,public,,,,,,,,,,,,,,,,,,,,,,,,,,,,,false
CNG,X3Energy,2323 117th Ave,At Highpointe Business Park at Colorado 257 and U.S. 34,Greeley,CO,80634,,844-304-9800,E,,Public - Credit card at all times,24 hours daily,A D FuelMan M Proprietor V Voyager Wright_Exp,,Q,3600,,,,,,,200-9,40.401304,-104.868073,2023-01-10,65748,2023-05-30 18:46:28 UTC,P,,,2016-09-15,,HD,,,,US,,,,Public - Carte de crédit en tout temps,,public,CREDIT_CARD_ALWAYS,,STANDALONE_STATION,7,NONE,,,,,,,,,,Q,3600,HD,,,false,,,,,,true,,HD,
ELEC,X3Energy,2323 117th Ave,At Highpointe Business Park at Colorado 257 and U.S. 34,Greeley,CO,80634,,844-304-9800,E,,Public - Credit card at all times,24 hours daily; Also accepts Ward Energy card,A D FuelMan M Proprietor V Voyager Wright_Exp,,,,,2,2,,Non-Networked,,200-9,40.401304,-104.868073,2023-01-10,65750,2023-05-30 18:46:28 UTC,P,,,2020-06-01,,,,,CHADEMO J1772,US,,,,Public - Carte de crédit en tout temps,,public,CREDIT_CARD_ALWAYS,,STANDALONE_STATION,,,,,,,,,,,,,,,,,false,,,,,,,,,false
E85,Kum & Go #676,2588 Airport Rd,,Colorado Springs,CO,80910,,719-434-4749,E,,Public,24 hours daily,A Cash D M V Voyager Wright_Exp,,,,,,,,,,GPS,38.82565,-104.7815,2023-03-08,65841,2023-03-08 17:16:33 UTC,P,,,2014-08-21,,,,true,,US,,,,Public,,public,,,CONVENIENCE_STORE,,,,,,"[""E15""]",,,,,,,,,,,false,,,,,,,,,
E85,Kum & Go #316,2999 Bonanza Dr,,Erie,CO,80026,,720-974-1604,E,,Public,24 hours daily,A Cash D FuelMan M V Voyager Wright_Exp,,,,,,,,,,GPS,40.00078,-105.03642,2023-03-08,65847,2023-03-08 17:16:33 UTC,P,,,2014-12-23,,,,true,,US,,,,Public,,public,,,CONVENIENCE_STORE,,,,,,"[""E15""]",,,,,,,,,,,false,,,,,,,,,
E85,Kum & Go #313,5480 E 120th Ave,,Thornton,CO,80241,,720-557-8373,E,,Public,24 hours daily,A Cash D FuelMan M V Voyager Wright_Exp,,,,,,,,,,GPS,39.91289,-104.92261,2023-03-08,65851,2023-03-08 17:16:33 UTC,P,,,2015-01-09,,,,true,,US,,,,Public,,public,,,CONVENIENCE_STORE,,,,,,"[""E15""]",,,,,,,,,,,false,,,,,,,,,
ELEC,Colorado Mountain College - Steamboat Springs,1275 Crawford Ave,,Steamboat Springs,CO,80487,,970-870-4444,E,,Public,24 hours daily,,,,,,1,,,Non-Networked,,200-8,40.490191,-106.839184,2021-07-14,66534,2023-08-08 16:10:34 UTC,SG,,,2015-01-01,,,,,J1772,US,,,,Public,,public,,,COLLEGE_CAMPUS,,,,,,,Free,,,,,,,,,,false,,,,,,,,,false
ELEC,Town of Kremmling - Town Park,203 Park Ave,,Kremmling,CO,80459,,970-724-3249,E,,Public,24 hours daily,,,,,,1,,,Non-Networked,,200-9,40.059492,-106.392923,2021-11-04,67343,2022-02-10 19:42:29 UTC,LG,,,2015-05-18,,,,,J1772,US,,,,Public,,public,,,PARK,,,,,,,Free,,,,,,,,,,false,,,,,,,,LD,false
ELEC,Solar Energy International,39845 Mathews Ln,,Paonia,CO,81428,,970-527-7657,E,,Public,24 hours daily,,,,,,1,,,Non-Networked,,200-9,38.855424,-107.614795,2021-12-09,67763,2022-02-10 19:42:29 UTC,P,,,2015-06-01,,,,,J1772,US,,,,Public,,public,,,OFFICE_BLDG,,,,,,,Free,,,,,,,,,SOLAR,false,,,,,,,,LD,false
ELEC,Mulberry Pool,424 W Mulberry Ave,West and adjacent to Lincoln Center,Fort Collins,CO,80521,,970-416-2627,E,,Public - Credit card at all times,24 hours daily,A Debit M V,,,,,2,,,Non-Networked,,GPS,40.58194721278001,-105.0840198970978,2022-01-10,67960,2022-02-10 19:42:29 UTC,LG,,,2015-06-01,,,,,J1772,US,,,,Public - Carte de crédit en tout temps,,public,CREDIT_CARD_ALWAYS,,REC_SPORTS_FACILITY,,,,,,,$1 per hour,,,,,,,,,,false,,,,,,,,LD,false
CNG,Sparq - Eaton,250 E Collins St,,Eaton,CO,80615,,844-772-7764,E,,Public - Credit card at all times,24 hours daily,A D FuelMan GasCard M V Voyager Wright_Exp,,Q,3600,,,,,,,200-8,40.524528,-104.709098,2023-01-10,67979,2023-07-12 19:55:14 UTC,P,,,2016-06-06,,HD,,,,US,,,,Public - Carte de crédit en tout temps,,public,CREDIT_CARD_ALWAYS,,STANDALONE_STATION,2,NONE,200,,,,,,,,,Q,3600,HD,,,false,,,,,,true,,HD,
ELEC,North County,4559 E Academy Blvd,,Denver,CO,80230,,720-532-0106,E,,Public,24 hours daily,,,,,,2,,,Non-Networked,,GPS,39.71945505950119,-104.8973917586578,2021-12-09,68154,2022-02-10 19:42:29 UTC,P,,,2014-10-01,,,,,J1772,US,,,,Public,,public,,,RESTAURANT,,,,,,,Free,,,,,,,,,,false,,,,,,,,MD,false
ELEC,Town of Winter Park - Parking Garage,50 Vasquez Rd,Located on lower level of parking garage,Winter Park,CO,80482,,970-726-8081,E,,Public,24 hours daily,,,,,,2,,,Non-Networked,,200-9,39.917213,-105.785621,2022-11-10,68191,2023-02-14 15:54:11 UTC,LG,,,2015-07-01,,,,,J1772,US,,,,Public,,public,,,PARKING_GARAGE,,,,,,,Free,,,,,,,,,,false,,,,,,,,LD,false
ELEC,Parker Adventist Hospital,9395 Crown Crest Blvd,Located in the parking garage,Parker,CO,80138,,303-269-4000,E,,Public,24 hours daily,,,,,,2,,,Non-Networked,,200-9,39.548267,-104.770933,2022-01-10,68415,2022-02-10 19:42:29 UTC,P,,,2015-06-01,,,,,J1772,US,,,,Public,,public,,,HOSPITAL,,,,,,,Free,,,,,,,,,,false,,,,,,,,LD,false
ELEC,Alpine Bank,225 N 5th St,,Grand Junction,CO,81501,,970-243-5600,E,,Public,24 hours daily,,,,,,2,,,Non-Networked,,200-9,39.068851,-108.565155,2023-01-10,68580,2023-02-14 15:54:11 UTC,P,,,2015-04-14,,,,,J1772,US,,,,Public,,public,,,BANK,,,,,,,Free,,,,,,,,,,false,,,,,,,,LD,false
LPG,Ed Glaser Propane Inc,324 5th St,,Calhan,CO,80808,,719-347-2338,E,,Public,8am-5pm M-F,Cash Checks D Debit M V,,,,,,,,,,200-9,39.035587,-104.296188,2022-12-13,70139,2023-02-14 15:54:11 UTC,P,,,2015-10-01,,,true,,,US,,,,Public,,public,,,FUEL_RESELLER,,,,,,,,,"[""ACME""]",,,,,,,,false,,,,,,,,HD,
ELEC,Grace Place,375 Meadowlark Dr,,Berthoud,CO,80513,,970-532-3826,E,,Public,6am-6pm daily,,,,,,2,,,Non-Networked,,GPS,40.30339304,-105.1046104105,2022-11-10,70533,2023-02-14 15:54:11 UTC,P,,,2015-10-12,,,,,J1772,US,,,,Public,,public,,,PLACE_OF_WORSHIP,,,,,,,Free,,,,,,,,,,false,,,,,,,,LD,false
ELEC,Frederick High School,5690 Tipple Pkwy,Located in the east parking lot that faces Tipple Pkwy,Frederick,CO,80530,,720-382-5514,E,,Public,24 hours daily,,,,,,2,,,Non-Networked,,200-8,40.1023,-104.947547,2021-11-04,70668,2022-02-10 19:42:29 UTC,P,,,2015-06-04,,,,,J1772,US,,,,Public,,public,,,SCHOOL,,,,,,,Free,,,,,,,,,,false,,,,,,,,LD,false
ELEC,Town of Frederick,101 6th St,Located on the NW corner and faces Main St. Close to downtown and Crist Park,Frederick,CO,80530,,720-382-5514,E,,Public,24 hours daily,,,,,,2,,,Non-Networked,,200-9,40.098005,-104.9411,2021-11-04,70669,2022-02-10 19:42:29 UTC,P,,,2015-06-04,,,,,J1772,US,,,,Public,,public,,,PARKING_LOT,,,,,,,Free,,,,,,,,,,false,,,,,,,,LD,false
LPG,U-Haul,12300 W Cedar Dr,,Lakewood,CO,80228,,303-986-5524,E,,Public,"7am-7pm M-Th and Sat, 7am-8pm F, 9am-5pm Sun",A Cash D M V,,,,,,,,,,200-9,39.711526,-105.135894,2023-02-13,70897,2023-02-14 15:54:11 UTC,P,,,2015-11-02,,,true,,,US,,,,Public,,public,,,RENTAL_CAR_RETURN,,,,,,,,,"[""ACME"", ""QUICK_CONNECT""]",,,,,,,,false,,,,,,,,HD,
LPG,U-Haul,6100 S College Ave,,Fort Collins,CO,80525,,970-226-3777,E,,Public,"7am-7pm M-Th and Sat, 7am-8pm F, 9am-5pm Sun",A Cash D M V,,,,,,,,,,200-9,40.501741,-105.076531,2023-02-13,70900,2023-02-14 15:54:11 UTC,P,,,2015-11-02,,,true,,,US,,,,Public,,public,,,RENTAL_CAR_RETURN,,,,,,,,,"[""ACME"", ""QUICK_CONNECT""]",,,,,,,,false,,,,,,,,HD,
LPG,U-Haul,750 S Buckley Rd,,Aurora,CO,80017,,303-752-4356,E,,Public,"7am-7pm M-Th and Sat, 7am-8pm F, 9am-5pm Sun",A Cash D M V,,,,,,,,,,200-9,39.702402,-104.790112,2023-02-13,70901,2023-02-14 15:54:11 UTC,P,,,2015-11-02,,,true,,,US,,,,Public,,public,,,RENTAL_CAR_RETURN,,,,,,,,,"[""ACME"", ""QUICK_CONNECT""]",,,,,,,,false,,,,,,,,HD,
ELEC,Carbondale Bus Rapid Transit Station - Park and Ride,345 State Highway 133,,Carbondale,CO,81623,,970-925-8484,E,,Public,24 hours daily; no overnight parking,,,,,,1,,,Non-Networked,,200-8,39.412498,-107.221581,2023-01-10,73465,2023-02-14 15:54:11 UTC,LG,,,2013-09-03,,,,,J1772,US,,,,Public,,public,,,PARKING_LOT,,,,,,,Free,,,,,,,,,,false,,,,,,,,LD,false
ELEC,Rez Church,6502 E Crossroads Blvd,,Loveland,CO,80538,,970-667-5479,E,,Public,8am-8pm daily,,,,,,2,,,Non-Networked,,200-9,40.434103,-104.980231,2021-12-09,74038,2022-02-10 19:42:29 UTC,P,,,2015-08-01,,,,,J1772,US,,,,Public,,public,,,PLACE_OF_WORSHIP,,,,,,,Free,,,,,,,,,,false,,,,,,,,MD,false
ELEC,Sonic Drive-In,10051 Wadsworth Pkwy,,Westminster,CO,80021,,720-887-3366,E,,Public,24 hours daily,,,,,,2,,,Non-Networked,,200-9,39.878705,-105.097595,2022-01-10,74141,2022-02-10 19:42:29 UTC,P,,,2016-03-14,,,,,J1772,US,,,,Public,,public,,,RESTAURANT,,,,,,,Free,,,,,,,,,,false,,,,,,,,LD,false
ELEC,1000 SPEER LEVEL 1,1000 Speer Blvd,,Denver,CO,80204,,888-758-4389,E,,Public,24 hours daily,,,,,,2,,,ChargePoint Network,http://www.chargepoint.com/,GPS,39.732487,-104.991825,2023-09-28,75910,2023-09-28 00:15:47 UTC,,,,2016-05-27,,,,,J1772,US,,,,Public,,public,,,,,,,,,,,,,,,,,,,,,,,,,,,,,false
CNG,Beyond6,10405 E 40th Ave,,Denver,CO,80239,,877-872-3966,E,,Public - Credit card at all times,24 hours daily,A Comdata D EFS FuelMan M TCH Tchek V Wright_Exp,,Q,3600,,,,,,,200-9,39.773537,-104.867049,2023-04-06,75921,2023-05-30 18:46:28 UTC,P,,,2016-05-02,,HD,,,,US,,,,Public - Carte de crédit en tout temps,,public,CREDIT_CARD_ALWAYS,,STANDALONE_STATION,3,NONE,2970,69426,,,,,,,,Q,3600,HD,,,false,,,,,,true,,HD,
ELEC,GRAND LAKE 1125 LAVE AVE 1,1117 Lake Ave,,Grand Lake,CO,80447,,888-758-4389,E,,Public,24 hours daily,,,,,,2,,,ChargePoint Network,http://www.chargepoint.com/,GPS,40.250664,-105.817267,2023-09-28,75964,2023-09-28 00:15:48 UTC,,,,2016-06-01,,,,,J1772,US,,,,Public,,public,,,,,,,,,,,,,,,,,,,,,,,,,,,,,false
ELEC,City of Denver - Chestnut Parking Lot,2004 Chestnut Pl,Located at the lot entrance in the northeast corner,Denver,CO,80202,,720-865-3164,E,,Public,24 hours daily; pay lot,,,,,,1,,,Non-Networked,,200-8,39.75786,-104.99841,2022-01-10,76280,2022-02-10 19:42:29 UTC,LG,,,2016-06-01,,,,,J1772,US,,,,Public,,public,,,PAY_LOT,,,,,,,Free,,,,,,,,,,false,,,,,,,,LD,false
ELEC,COLO STATE UNIV SOUTH COLLEGE 3,121 W Pitkin St,,Fort Collins,CO,80524,,888-758-4389,E,,Public,24 hours daily,,,,,,2,,,ChargePoint Network,http://www.chargepoint.com/,GPS,40.570711,-105.078411,2023-09-28,76852,2023-09-28 00:15:58 UTC,,,,2016-07-02,,,,,J1772,US,,,,Public,,public,,,,,,,,,,,,,,,,,,,,,,,,,,,,,false
ELEC,COLO STATE UNIV SOUTH COLLEGE 1,119-181 W Pitkin St,,Fort Collins,CO,80524,,888-758-4389,E,,Public,24 hours daily,,,,,,2,,,ChargePoint Network,http://www.chargepoint.com/,GPS,40.570714,-105.078378,2023-09-28,76853,2023-09-28 00:15:57 UTC,,,,2016-07-02,,,,,J1772,US,,,,Public,,public,,,,,,,,,,,,,,,,,,,,,,,,,,,,,false
ELEC,SDCEA MAIN STREET,S Railroad St,,Buena Vista,CO,81211,,888-758-4389,E,,Public,24 hours daily,,,,,,2,,,ChargePoint Network,http://www.chargepoint.com/,GPS,38.841903,-106.130572,2023-09-28,76917,2023-09-28 00:16:54 UTC,,,,2016-07-09,,,,,J1772,US,,,,Public,,public,,,,,,,,,,,,,,,,,,,,,,,,,,,,,false
ELEC,"Brendle Group, Inc",212 W Mulberry St,,Fort Collins,CO,80521,,970-207-0058,E,,Public,8am-5pm M-F; see main office for access,,,,,,2,,,Non-Networked,,200-9,40.581824,-105.079708,2023-01-10,77933,2023-02-14 15:54:11 UTC,P,,,2015-05-01,,,,,J1772,US,,,,Public,,public,,,OFFICE_BLDG,,,,,,,Free,,,,,,,,,,false,,,,,,,,LD,true
ELEC,Heart of the Rockies Regional Medical Center,1000 Rush Dr,,Salida,CO,81201,,719-530-2200,E,,Public,24 hours daily,,,,,,1,,,Non-Networked,,200-9,38.542959,-106.008655,2021-12-09,77967,2022-02-10 19:42:29 UTC,P,,,2015-10-01,,,,,J1772,US,,,,Public,,public,,,HOSPITAL,,,,,,,Free,,,,,,,,,,false,,,,,,,,LD,false
ELEC,Avalon Theatre,645 Main St,,Grand Junction,CO,81501,,970-245-9697,E,,Public,24 hours daily,,,,,,1,,,Non-Networked,,200-9,39.067005,-108.561516,2021-11-04,77968,2022-02-10 19:42:29 UTC,LG,,,2015-07-01,,,,,J1772,US,,,,Public,,public,,,OTHER_ENTERTAINMENT,,,,,,,Free,,,,,,,,,,false,,,,,,,,LD,false
ELEC,UCAR & NCAR FOOTHILLS LAB,3375 Mitchell Ln,,Boulder,CO,80301,,888-758-4389,E,,Public,24 hours daily,,,,,,2,,,ChargePoint Network,http://www.chargepoint.com/,GPS,40.036534,-105.242994,2023-09-28,78194,2023-09-28 00:16:33 UTC,,,,2016-08-30,,,,,J1772,US,,,,Public,,public,,,,,,,,,,,,,,,,,,,,,,,,,,,,,false
ELEC,UCAR & NCAR CENTER GREEN 1,3080 Center Green Dr,,Boulder,CO,80301,,888-758-4389,E,,Public,24 hours daily,,,,,,2,,,ChargePoint Network,http://www.chargepoint.com/,GPS,40.031973,-105.245526,2023-09-28,78196,2023-09-28 00:16:06 UTC,,,,2016-08-30,,,,,J1772,US,,,,Public,,public,,,,,,,,,,,,,,,,,,,,,,,,,,,,,false
ELEC,Third Street Center,520 S 3rd St,Located on the east side of the facility,Carbondale,CO,81623,,970-963-3221,E,,Public,24 hours daily,,,,,,4,,,Non-Networked,,200-9,39.395289,-107.209921,2022-11-10,78362,2023-02-14 15:54:11 UTC,LG,,,2016-08-31,,,,,J1772,US,,,,Public,,public,,,MUNI_GOV,,,,,,,Free,,,,,,,,,SOLAR,false,,,,,,,,LD,false
ELEC,ONE BOULDER PLZ 1301,1301 Canyon Blvd,,Boulder,CO,80302,,888-758-4389,E,,Public,24 hours daily,,,,,,2,,,ChargePoint Network,http://www.chargepoint.com/,GPS,40.016538,-105.277527,2023-09-28,78435,2023-09-28 00:16:43 UTC,,,,2016-09-14,,,,,J1772,US,,,,Public,,public,,,,,,,,,,,,,,,,,,,,,,,,,,,,,false
ELEC,ONE BOULDER PLZ 1801 1,1801 13th St,,Boulder,CO,80302,,888-758-4389,E,,Public,24 hours daily,,,,,,2,,,ChargePoint Network,http://www.chargepoint.com/,GPS,40.016622,-105.278551,2023-09-28,78436,2023-09-28 00:28:25 UTC,,,,2016-09-14,,,,,J1772,US,,,,Public,,public,,,,,,,,,,,,,,,,,,,,,,,,,,,,,false
ELEC,Roaring Fork High School,2270 Highway 133,,Carbondale,CO,81623,,970-384-5783  970-384-5757,E,,Public,24 hours daily,,,,,,2,,,Non-Networked,,GPS,39.387753,-107.203871,2021-12-09,78542,2022-02-10 19:42:29 UTC,LG,,,2015-08-01,,,,,J1772,US,,,,Public,,public,,,SCHOOL,,,,,,,Free,,,,,,,,,,false,,,,,,,,LD,true
ELEC,Town of Snowmass Village,2909 Brush Creek Rd,,Snowmass Village,CO,81615,,970-923-3777,E,,Public,24 hours daily,,,,,,2,,,Non-Networked,,GPS,39.220459,-106.93193,2021-11-04,78639,2022-02-10 19:42:29 UTC,LG,,,2014-09-01,,,,,J1772,US,,,,Public,,public,,,PARKING_LOT,,,,,,,Free,,,,,,,,,,false,,,,,,,,LD,false
ELEC,MOLLYS STATION 1,5809 W 44th Ave,,Denver,CO,80212,,888-758-4389,E,,Public,24 hours daily,,,,,,2,,,ChargePoint Network,http://www.chargepoint.com/,GPS,39.77886,-105.059865,2023-09-28,78841,2023-09-28 00:16:41 UTC,,,,2016-10-04,,,,,J1772,US,,,,Public,,public,,,,,,,,,,,,,,,,,,,,,,,,,,,,,false
ELEC,City of Boulder - Atrium Building,1300 Canyon Blvd,,Boulder,CO,80302,,303-441-1880,E,,Public,Employee use only 8am-5pm; available to public after hours,,,,,,4,,,Non-Networked,,200-9,40.015925,-105.27745,2022-01-10,79297,2022-04-28 20:01:31 UTC,LG,,,2016-12-15,,,,,J1772,US,,,,Public,,public,,,MUNI_GOV,,,,,,,Free,,,,,,,,,,true,,,,,,,,LD,true
ELEC,Colorado Mountain College - Vail Valley,150 Miller Ranch Rd,,Edwards,CO,81632,,970-569-2918,E,,Public,8am-5pm daily,,,,,,2,,,Non-Networked,,200-9,39.645807,-106.588043,2021-07-14,79410,2023-08-08 16:10:34 UTC,P,,,2016-10-27,,,,,J1772,US,,,,Public,,public,,,COLLEGE_CAMPUS,,,,,,,Free,,,,,,,,,,false,,,,,,,,,false
ELEC,Colorado Mountain College - Spring Valley at Glenwood Springs,3000 County Rd 114,,Glenwood Springs,CO,81601,,970-945-7481,E,,Public,8am-5pm daily,,,,,,2,,,Non-Networked,,200-8,39.467595,-107.252523,2021-07-14,79411,2023-08-08 16:10:34 UTC,P,,,2016-10-27,,,,,J1772,US,,,,Public,,public,,,COLLEGE_CAMPUS,,,,,,,Free,,,,,,,,,,false,,,,,,,,,false
ELEC,Colorado Mountain College - Glenwood Springs,1402 Blake Ave,,Glenwood Springs,CO,81601,,970-947-8443,E,,Public,8am-5pm daily,,,,,,2,,,Non-Networked,,200-9,39.538781,-107.3219,2021-07-14,79412,2023-08-08 16:10:34 UTC,P,,,2016-10-27,,,,,J1772,US,,,,Public,,public,,,COLLEGE_CAMPUS,,,,,,,Free,,,,,,,,,,false,,,,,,,,,false
ELEC,Colorado Mountain College - Aspen,255 Sage Way,,Aspen,CO,81611,,970-925-7740,E,,Public,8am-5pm daily,,,,,,2,,,Non-Networked,,200-9,39.223415,-106.86404,2021-07-14,79413,2023-08-08 16:10:34 UTC,P,,,2016-10-27,,,,,J1772,US,,,,Public,,public,,,COLLEGE_CAMPUS,,,,,,,Free,,,,,,,,,,false,,,,,,,,,false
ELEC,REEF FLATIRON 55TH ST. ST1,2425 55th St,,Boulder,CO,80301,,888-758-4389,E,,Public,24 hours daily,,,,,,2,,,ChargePoint Network,http://www.chargepoint.com/,GPS,40.023166,-105.225934,2023-09-28,80855,2023-09-28 00:17:24 UTC,,,,2017-01-12,,,,,J1772,US,,,,Public,,public,,,,,,,,,,,,,,,,,,,,,,,,,,,,,false
ELEC,MOLLYS STATION 2,4801 Fenton St,,Denver,CO,80212,,888-758-4389,E,,Public,24 hours daily,,,,,,2,,,ChargePoint Network,http://www.chargepoint.com/,GPS,39.778976,-105.059883,2023-09-28,81061,2023-09-28 00:18:16 UTC,,,,2017-01-30,,,,,J1772,US,,,,Public,,public,,,,,,,,,,,,,,,,,,,,,,,,,,,,,false
ELEC,ONE BELLEVIEW 3RD FLOOR 1,7001 E Belleview Ave,,Denver,CO,80237,,888-758-4389,E,,Public,24 hours daily,,,,,,2,,,ChargePoint Network,http://www.chargepoint.com/,GPS,39.624384,-104.904374,2023-09-28,81196,2023-09-28 00:18:02 UTC,,,,2017-02-02,,,,,J1772,US,,,,Public,,public,,,,,,,,,,,,,,,,,,,,,,,,,,,,,false
CNG,Trillium - Gunnison Valley Rural Transportation Authority,508 W Tomichi Ave,U.S. Highway 50; in the parking lot of Gunnison Tire,Gunnison,CO,81230,,800-920-1166,E,,Public - Credit card at all times,24 hours daily,A D FuelMan M Trillium V Voyager Wright_Exp,,Q,3600,,,,,,,200-9,38.544802,-106.932525,2022-06-14,81564,2023-05-30 18:46:28 UTC,P,,,2017-12-12,,HD,,,,US,,,,Public - Carte de crédit en tout temps,,public,CREDIT_CARD_ALWAYS,,PARKING_LOT,2,,,,,,,,,,,Q,3600,HD,,,false,,,,,,,,HD,
ELEC,KENT PLACE GAYLORD ST1,3465 S Gaylord Ct,,Englewood,CO,80113,,888-758-4389,E,,Public,24 hours daily,,,,,,2,,,ChargePoint Network,http://www.chargepoint.com/,GPS,39.654727,-104.961309,2023-09-28,81583,2023-09-28 00:18:37 UTC,,,,2017-02-28,,,,,J1772,US,,,,Public,,public,,,,,,,,,,,,,,,,,,,,,,,,,,,,,false
ELEC,GRAND PEAKS LOHI GOLD ST1,2424 W Caithness Pl,,Denver,CO,80211,,888-758-4389,E,,Public,24 hours daily,,,,,,2,,,ChargePoint Network,http://www.chargepoint.com/,GPS,39.760236,-105.016544,2023-09-28,81637,2023-09-28 00:18:13 UTC,,,,2017-03-02,,,,,J1772,US,,,,Public,,public,,,,,,,,,,,,,,,,,,,,,,,,,,,,,false
E85,Kum & Go #305,3033 8th Ave,,Evans,CO,80620,,970-352-9268,E,,Public,24 hours daily,A Cash D M V Voyager Wright_Exp,,,,,,,,,,200-9,40.385101,-104.691552,2023-03-08,81735,2023-03-08 17:16:33 UTC,P,,,2009-06-05,,,,true,,US,,,,Public,,public,,,CONVENIENCE_STORE,,,,,,"[""E15""]",,,,,,,,,,,false,,,,,,,,,
E85,Kum & Go #684,2422 Research Pkwy,,Colorado Springs,CO,80920,,719-559-2275,E,,Public,24 hours daily,A Cash D FuelMan M Voyager Wright_Exp,,,,,,,,,,200-8,38.960363,-104.783023,2023-03-08,81746,2023-03-08 17:16:33 UTC,P,,,2012-09-04,,,,true,,US,,,,Public,,public,,,CONVENIENCE_STORE,,,,,,"[""E15""]",,,,,,,,,,,false,,,,,,,,,
E85,Kum & Go #1903,700 Victory Way E,,Craig,CO,81625,,970-824-0377,E,,Public,24 hours daily,A Cash D M V Voyager Wright_Exp,,,,,,,,,,200-9,40.513795,-107.538562,2023-03-08,81747,2023-03-08 17:16:33 UTC,P,,,2015-09-21,,,,true,,US,,,,Public,,public,,,CONVENIENCE_STORE,,,,,,"[""E15""]",,,,,,,,,,,false,,,,,,,,,
E85,Kum & Go #659,9665 Prominent Point,,Colorado Springs,CO,80924,,719-282-7673,E,,Public,24 hours daily,A Cash D M V Voyager Wright_Exp,,,,,,,,,,200-8,38.971824,-104.744838,2023-03-08,81748,2023-03-08 17:16:33 UTC,P,,,2015-10-01,,,,true,,US,,,,Public,,public,,,CONVENIENCE_STORE,,,,,,"[""E15""]",,,,,,,,,,,false,,,,,,,,,
ELEC,Pueblo County Courthouse,215 W 10th St,Located on the corner of 10th and Main,Pueblo,CO,81003,,719-583-6000,E,,Public,24 hours daily,,,,,,2,,,Non-Networked,,200-9,38.276693,-104.609459,2022-01-10,82165,2022-02-10 19:42:29 UTC,LG,,,2014-06-01,,,,,J1772,US,,,,Public,,public,,,MUNI_GOV,,,,,,,Free,,,,,,,,,,false,,,,,,,,LD,false
ELEC,STATION 1 FORT LUPTON REC,155-199 S Harrison Ave,,Fort Lupton,CO,80621,,888-758-4389,E,,Public,24 hours daily,,,,,,2,,,ChargePoint Network,http://www.chargepoint.com/,GPS,40.079084,-104.806977,2023-09-28,82197,2023-09-28 00:18:44 UTC,,,,2017-04-06,,,,,J1772,US,,,,Public,,public,,,,,,,,,,,,,,,,,,,,,,,,,,,,,false
ELEC,ANSCHUTZ CAMPUS EAST LOT 1,E 17th Pl,,Aurora,CO,80045,,888-758-4389,E,,Public,24 hours daily,,,,,,2,,,ChargePoint Network,http://www.chargepoint.com/,GPS,39.744143,-104.834091,2023-09-28,82409,2023-09-28 00:17:07 UTC,,,,2017-04-26,,,,,J1772,US,,,,Public,,public,,,,,,,,,,,,,,,,,,,,,,,,,,,,,false
ELEC,Centura Health - ER,750 Warner Dr,,Golden,CO,80401,,303-925-4340,E,,Public,24 hours daily; for guest and patient use only,,,,,,1,,,Non-Networked,,200-8,39.72949,-105.21025,2023-01-10,82464,2023-02-14 15:54:11 UTC,P,,,2015-07-01,,,,,J1772,US,,,,Public,,public,,,HOSPITAL,,,,,,,Free,,,,,,,,,,true,,,,,,,,MD,false
ELEC,Holiday Inn Express,17140 W Colfax Ave,,Golden,CO,80401,,303-278-2388,E,,Public,24 hours daily; for guest use only,,,,,,4,,,Non-Networked,,200-9,39.722082,-105.192637,2021-12-09,82465,2022-04-28 20:01:31 UTC,P,,,2016-07-01,,,,,J1772,US,,,,Public,,public,,,HOTEL,,,,,,,Free,,,,,,,,,,true,,,,,,,,MD,false
ELEC,King Chevrolet Buick GMC,1415 Vista View Dr,,Longmont,CO,80504,,303-776-2650,E,,Public - Call ahead,Dealership business hours; for customer use only,,,,,,1,1,,Non-Networked,,200-9,40.159751,-105.034583,2022-12-13,82466,2023-02-14 15:54:11 UTC,P,,,2013-03-01,,,,,CHADEMO J1772 J1772COMBO,US,,,,Public - Appeler à l'avance,,public,CALL,,CAR_DEALER,,,,,,,,,,,,,,,,,true,,,,,,,,LD,false
ELEC,PARKING GARAGE SUGARCUBE P1,1555 Blake St,,Denver,CO,80202,,888-758-4389,E,,Public,24 hours daily,,,,,,2,,,ChargePoint Network,http://www.chargepoint.com/,GPS,39.750433,-104.999804,2023-09-28,82488,2023-09-28 00:18:40 UTC,,,,2017-05-03,,,,,J1772,US,,,,Public,,public,,,,,,,,,,,,,,,,,,,,,,,,,,,,,false
ELEC,BC PUBLIC FAIRGROUNDS 1,Fairground Access West,,Longmont,CO,80501,,888-758-4389,E,,Public,24 hours daily,,,,,,2,,,ChargePoint Network,http://www.chargepoint.com/,GPS,40.155982,-105.128864,2023-09-28,82524,2023-09-28 00:16:06 UTC,,,,2017-05-09,,,,,J1772,US,,,,Public,,public,,,,,,,,,,,,,,,,,,,,,,,,,,,,,false
ELEC,Montrose Memorial Hospital,800 S 3rd St,,Montrose,CO,81401,,970-249-2211,E,,Public,24 hours daily,,,,,,1,,,Non-Networked,,200-9,38.480552,-107.868718,2022-12-13,82771,2023-02-14 15:54:11 UTC,P,,,2017-05-17,,,,,J1772,US,,,,Public,,public,,,HOSPITAL,,,,,,,Free,,,,,,,,,,false,,,,,,,,LD,false
ELEC,COW WSPG NO LOWER,6995Grove St.,,Westminster,CO,80030,,888-758-4389,E,,Public,24 hours daily,,,,,,2,,,ChargePoint Network,http://www.chargepoint.com/,GPS,39.823461,-105.028244,2023-09-28,85438,2023-09-28 00:18:05 UTC,,,,2017-06-06,,,,,J1772,US,,,,Public,,public,,,,,,,,,,,,,,,,,,,,,,,,,,,,,false
ELEC,AC GC 2,S Adams County Pkwy,,Brighton,CO,80601,,888-758-4389,E,,Public,24 hours daily,,,,,,2,,,ChargePoint Network,http://www.chargepoint.com/,GPS,39.922873,-104.81291,2023-09-28,85644,2023-09-28 00:19:27 UTC,,,,2017-06-23,,,,,J1772,US,,,,Public,,public,,,,,,,,,,,,,,,,,,,,,,,,,,,,,false
ELEC,BOULDER ANNEX ST1,7315 Red Deer Dr,,Boulder,CO,80301,,888-758-4389,E,,Public,24 hours daily,,,,,,2,,,ChargePoint Network,http://www.chargepoint.com/,GPS,40.023938,-105.182641,2023-09-28,85710,2023-09-28 00:17:49 UTC,,,,2017-06-28,,,,,J1772,US,,,,Public,,public,,,,,,,,,,,,,,,,,,,,,,,,,,,,,false
ELEC,Edwards Freedom Park,450 Miller Ranch Rd,,Eagle,CO,81631,,970-766-5555  970-328-8766,E,,Public,24 hours daily,,,,,,2,,,Non-Networked,,GPS,39.645781,-106.586701,2023-01-10,85748,2023-02-14 15:54:11 UTC,LG,,,2017-08-01,,,,,J1772,US,,,,Public,,public,,,PARK,,,,,,,Free,,,,,,,,,,false,,,,,,,,LD,false
ELEC,AC SHF 2,332 N 19th Ave,,Brighton,CO,80601,,888-758-4389,E,,Public,24 hours daily,,,,,,2,,,ChargePoint Network,http://www.chargepoint.com/,GPS,39.993032,-104.798291,2023-09-28,85754,2023-09-28 00:19:37 UTC,,,,2017-06-29,,,,,J1772,US,,,,Public,,public,,,,,,,,,,,,,,,,,,,,,,,,,,,,,false
ELEC,LOCHBUIE TOWN HALL,703 Co Rd 37,,Brighton,CO,80603,,888-758-4389,E,,Public,24 hours daily,,,,,,2,,,ChargePoint Network,http://www.chargepoint.com/,GPS,40.01074,-104.716823,2023-09-28,85755,2023-09-28 00:19:34 UTC,,,,2017-06-29,,,,,J1772,US,,,,Public,,public,,,,,,,,,,,,,,,,,,,,,,,,,,,,,false
ELEC,PARKING SYSTEM CAB L1 A,130 S Nevada Ave,,Colorado Springs,CO,80903,,888-758-4389,E,,Public,24 hours daily,,,,,,2,,,ChargePoint Network,http://www.chargepoint.com/,GPS,38.831807,-104.822392,2023-09-28,85825,2023-09-28 00:19:38 UTC,,,,2017-07-07,,,,,J1772,US,,,,Public,,public,,,,,,,,,,,,,,,,,,,,,,,,,,,,,false
ELEC,PARKING SYSTEM KIOWA L1 A,127 E Kiowa St,,Colorado Springs,CO,80903,,888-758-4389,E,,Public,24 hours daily,,,,,,2,,,ChargePoint Network,http://www.chargepoint.com/,GPS,38.834599,-104.822207,2023-09-28,85826,2023-09-28 00:19:37 UTC,,,,2017-07-07,,,,,J1772,US,,,,Public,,public,,,,,,,,,,,,,,,,,,,,,,,,,,,,,false
ELEC,FGC GARAGE FGC STATION 4,6363 S Fiddlers Green Cir,,Greenwood Village,CO,80111,,888-758-4389,E,,Public,24 hours daily,,,,,,2,,,ChargePoint Network,http://www.chargepoint.com/,GPS,39.600073,-104.892151,2023-09-28,85845,2023-09-28 00:19:40 UTC,,,,2017-07-11,,,,,J1772,US,,,,Public,,public,,,,,,,,,,,,,,,,,,,,,,,,,,,,,false
ELEC,SVVSD ESC 3,395 S. Pratt Parkway,,Longmont,CO,80501,,888-758-4389,E,,Public,24 hours daily,,,,,,2,,,ChargePoint Network,http://www.chargepoint.com/,GPS,40.155203,-105.107814,2023-09-28,85865,2023-09-28 00:19:54 UTC,,,,2017-07-12,,,,,J1772,US,,,,Public,,public,,,,,,,,,,,,,,,,,,,,,,,,,,,,,false
ELEC,SVVSD E BUS TERMINAL,13184 Co Rd 13,,Longmont,CO,80504,,888-758-4389,E,,Public,24 hours daily,,,,,,2,,,ChargePoint Network,http://www.chargepoint.com/,GPS,40.19052,-104.940827,2023-09-28,85867,2023-09-28 00:19:36 UTC,,,,2017-07-12,,,,,J1772,US,,,,Public,,public,,,,,,,,,,,,,,,,,,,,,,,,,,,,,false
ELEC,RMI IC STATION 3,22826 2 Rivers Rd,,Basalt,CO,81621,,888-758-4389,E,,Public,24 hours daily,,,,,,2,,,ChargePoint Network,http://www.chargepoint.com/,GPS,39.368351,-107.038403,2023-09-28,85882,2023-09-28 00:19:36 UTC,,,,2017-07-13,,,,,J1772,US,,,,Public,,public,,,,,,,,,,,,,,,,,,,,,,,,,,,,,false
ELEC,DENVER PLACE DENVERPLACE02,999 18th St,,Denver,CO,80202,,888-758-4389,E,,Public,24 hours daily,,,,,,2,,,ChargePoint Network,http://www.chargepoint.com/,GPS,39.74886,-104.991305,2023-09-28,85916,2023-09-28 00:19:42 UTC,,,,2017-07-15,,,,,J1772,US,,,,Public,,public,,,,,,,,,,,,,,,,,,,,,,,,,,,,,false
ELEC,CCD CHARGING CULTURAL STN 2,55 W 12th Ave,,Denver,CO,80204,,888-758-4389,E,,Public,24 hours daily,,,,,,2,,,ChargePoint Network,http://www.chargepoint.com/,GPS,39.736263,-104.98838,2023-09-28,85932,2023-09-28 00:41:37 UTC,,,,2017-07-18,,,,,J1772,US,,,,Public,,public,,,,,,,,,,,,,,,,,,,,,,,,,,,,,false
ELEC,CDOT GJ SHOP,901-943 D Rd,,Grand Junction,CO,81501,,888-758-4389,E,,Public,24 hours daily,,,,,,2,,,ChargePoint Network,http://www.chargepoint.com/,GPS,39.061398,-108.557168,2023-09-28,86137,2023-09-28 00:19:25 UTC,,,,2017-07-29,,,,,J1772,US,,,,Public,,public,,,,,,,,,,,,,,,,,,,,,,,,,,,,,false
ELEC,CDOT GREELEY HQ,10601 W 10th St,,Greeley,CO,80634,,888-758-4389,E,,Public,24 hours daily,,,,,,2,,,ChargePoint Network,http://www.chargepoint.com/,GPS,40.41764,-104.859941,2023-09-28,86138,2023-09-28 00:19:25 UTC,,,,2017-07-29,,,,,J1772,US,,,,Public,,public,,,,,,,,,,,,,,,,,,,,,,,,,,,,,false
ELEC,CDOT NHOLLYST,4670 Holly St,,Denver,CO,80216,,888-758-4389,E,,Public,24 hours daily,,,,,,2,,,ChargePoint Network,http://www.chargepoint.com/,GPS,39.780916,-104.921926,2023-09-28,86139,2023-09-28 00:19:25 UTC,,,,2017-07-29,,,,,J1772,US,,,,Public,,public,,,,,,,,,,,,,,,,,,,,,,,,,,,,,false
ELEC,SVVSD NIWOT ES,8778 Morton Rd,,Longmont,CO,80503,,888-758-4389,E,,Public,24 hours daily,,,,,,2,,,ChargePoint Network,http://www.chargepoint.com/,GPS,40.099606,-105.147339,2023-09-28,86259,2023-09-28 00:19:36 UTC,,,,2017-08-06,,,,,J1772,US,,,,Public,,public,,,,,,,,,,,,,,,,,,,,,,,,,,,,,false
E85,Kum & Go #687,525 Wooten Rd,,Colorado Springs,CO,80915,,719-559-3480,E,,Public - Credit card after hours,"6am-8pm M-Th, 6am-10pm F, 7am-10pm Sat, 7am-8pm Sun",A Cash D Debit M V,,,,,,,,,,200-8,38.84034,-104.73807,2022-06-14,86975,2023-09-21 21:05:13 UTC,P,,,2017-08-15,,,,true,,US,,,,Public - Carte de crédit après les heures d'ouverture,,public,CREDIT_CARD_AFTER_HOURS,,CONVENIENCE_STORE,,,,,,"[""E15""]",,,,,,,,,,,false,,,,,,,,,
ELEC,AC HSC 1,1200 W 120th Ave,,Westminster,CO,80234,,888-758-4389,E,,Public,24 hours daily,,,,,,2,,,ChargePoint Network,http://www.chargepoint.com/,GPS,39.911293,-105.002236,2023-09-28,87397,2023-09-28 00:20:57 UTC,,,,2017-09-06,,,,,J1772,US,,,,Public,,public,,,,,,,,,,,,,,,,,,,,,,,,,,,,,false
ELEC,LAFAYETTE EV LIBRARY ST1,827-855 West Baseline Road,,Lafayette,CO,80026,,888-758-4389,E,,Public,24 hours daily,,,,,,1,,,ChargePoint Network,http://www.chargepoint.com/,GPS,40.000518,-105.099938,2023-09-28,87463,2023-09-28 00:20:21 UTC,,,,2017-09-09,,,,,J1772,US,,,,Public,,public,,,,,,,,,,,,,,,,,,,,,,,,,,,,,false
ELEC,TOS COMMUNITY PARK1,1631 Coalton Rd,,Superior,CO,80027,,888-758-4389,E,,Public,24 hours daily,,,,,,2,,,ChargePoint Network,http://www.chargepoint.com/,GPS,39.929913,-105.150607,2023-09-28,87898,2023-09-28 00:21:11 UTC,,,,2017-10-05,,,,,J1772,US,,,,Public,,public,,,,,,,,,,,,,,,,,,,,,,,,,,,,,false
ELEC,TOS FOUNDERS PARK1,Sycamore St,,Superior,CO,80027,,888-758-4389,E,,Public,24 hours daily,,,,,,2,,,ChargePoint Network,http://www.chargepoint.com/,GPS,39.954902,-105.173354,2023-09-28,87934,2023-09-28 00:21:11 UTC,,,,2017-10-07,,,,,J1772,US,,,,Public,,public,,,,,,,,,,,,,,,,,,,,,,,,,,,,,false
ELEC,TOS TOWN HALL1,Park Pl,,Superior,CO,80027,,888-758-4389,E,,Public,24 hours daily,,,,,,2,,,ChargePoint Network,http://www.chargepoint.com/,GPS,39.953549,-105.166117,2023-09-28,87935,2023-09-28 00:21:11 UTC,,,,2017-10-07,,,,,J1772,US,,,,Public,,public,,,,,,,,,,,,,,,,,,,,,,,,,,,,,false
ELEC,BC PUBLIC BLDR CTY PARKS,5201 St Vrain Rd,,Longmont,CO,80503,,888-758-4389,E,,Public,24 hours daily,,,,,,2,,,ChargePoint Network,http://www.chargepoint.com/,GPS,40.169549,-105.166605,2023-09-28,87955,2023-09-28 00:21:01 UTC,,,,2017-10-10,,,,,J1772,US,,,,Public,,public,,,,,,,,,,,,,,,,,,,,,,,,,,,,,false
ELEC,MAA PROMENADE STATION 1,10851-10999 Westminster Blvd,,Westminster,CO,80020,,888-758-4389,E,,Public,24 hours daily,,,,,,2,,,ChargePoint Network,http://www.chargepoint.com/,GPS,39.894825,-105.07406,2023-09-28,88007,2023-09-28 00:18:40 UTC,,,,2017-10-13,,,,,J1772,US,,,,Public,,public,,,,,,,,,,,,,,,,,,,,,,,,,,,,,false
ELEC,IRONHORSE IRONHORSE,1600 Iron Horse Dr,,Longmont,CO,80501,,888-758-4389,E,,Public,24 hours daily,,,,,,2,,,ChargePoint Network,http://www.chargepoint.com/,GPS,40.159432,-105.06196,2023-09-28,88184,2023-09-28 00:20:28 UTC,,,,2017-10-31,,,,,J1772,US,,,,Public,,public,,,,,,,,,,,,,,,,,,,,,,,,,,,,,false
ELEC,Poudre Valley REA,7649 REA Pkwy,,Fort Collins,CO,80528,,800-432-1012,E,,Public - Credit card at all times,24 hours daily; maximum session time of three hours,CREDIT Debit,,,,,1,,,Non-Networked,,200-8,40.478364,-104.978628,2023-01-10,88339,2023-02-14 15:54:11 UTC,T,,,2017-10-01,,,,,J1772,US,,,,Public - Carte de crédit en tout temps,,public,CREDIT_CARD_ALWAYS,,UTILITY,,,,,,,$0.10 per kWh,,,,,,,,,,false,,,,,,,,LD,false
ELEC,CITY OF ASPEN SPRING ST L2,208 S Spring St,,Aspen,CO,81611,,888-758-4389,E,,Public,24 hours daily,,,,,,2,,,ChargePoint Network,http://www.chargepoint.com/,GPS,39.188611,-106.816077,2023-09-28,88439,2023-09-28 00:21:16 UTC,,,,2017-11-14,,,,,J1772,US,,,,Public,,public,,,,,,,,,,,,,,,,,,,,,,,,,,,,,false
ELEC,MERCY HEALTH STATION 1,1010 Three Springs Avenue,,Durango,CO,81301,,888-758-4389,E,,Public,24 hours daily,,,,,,2,,,ChargePoint Network,http://www.chargepoint.com/,GPS,37.235105,-107.825745,2023-09-28,88559,2023-09-28 00:21:12 UTC,,,,2017-11-23,,,,,J1772,US,,,,Public,,public,,,,,,,,,,,,,,,,,,,,,,,,,,,,,false
ELEC,TABOR CENTER HORACE,1201-1299 16th St,,Denver,CO,80202,,888-758-4389,E,,Public,24 hours daily,,,,,,2,,,ChargePoint Network,http://www.chargepoint.com/,GPS,39.748823,-104.996585,2023-09-28,89045,2023-09-28 00:21:57 UTC,,,,2017-12-16,,,,,J1772,US,,,,Public,,public,,,,,,,,,,,,,,,,,,,,,,,,,,,,,false
ELEC,TABOR CENTER AUGUSTA,1200 17th St,,Denver,CO,80202,,888-758-4389,E,,Public,24 hours daily,,,,,,2,,,ChargePoint Network,http://www.chargepoint.com/,GPS,39.748815,-104.996618,2023-09-28,89046,2023-09-28 00:21:49 UTC,,,,2017-12-16,,,,,J1772,US,,,,Public,,public,,,,,,,,,,,,,,,,,,,,,,,,,,,,,false
ELEC,CCD CHARGING CITY HALL 1,201-249 W 14th Ave,,Denver,CO,80202,,888-758-4389,E,,Public,24 hours daily,,,,,,2,,,ChargePoint Network,http://www.chargepoint.com/,GPS,39.738527,-104.990586,2023-09-28,89048,2023-09-28 00:20:04 UTC,,,,2017-12-16,,,,,J1772,US,,,,Public,,public,,,,,,,,,,,,,,,,,,,,,,,,,,,,,false
ELEC,Town of Ridgway - Hartwell Park,201 N Railroad St,North Railroad Street and South Highway 62,Ridgway,CO,81432,,970-626-5308,E,,Public,24 hours daily,,,,,,2,,,Non-Networked,,GPS,38.1525284247078,-107.7551088465576,2022-12-13,91886,2023-02-14 15:54:11 UTC,P,,,2017-12-15,,,,,J1772,US,,,,Public,,public,,,PARK,,,,,,,Free,,,,,,,,,,false,,,,,,,,LD,false
ELEC,EchoPark Automotive,500 E 104th Ave,,Thornton,CO,80233,,720-457-1886,E,,Public - Call ahead,Dealership business hours,,,,,,2,,,Non-Networked,,200-9,39.883636,-104.979943,2022-11-10,91951,2023-02-14 15:54:11 UTC,P,,,2017-11-01,,,,,J1772,US,,,,Public - Appeler à l'avance,,public,CALL,,CAR_DEALER,,,,,,,Free,,,,,,,,,,false,,,,,,,,LD,false
ELEC,EchoPark Automotive,10401 E Arapahoe Rd,,Centennial,CO,80111,,720-253-0460,E,,Public - Call ahead,Dealership business hours,,,,,,1,,,Non-Networked,,200-9,39.595975,-104.867972,2022-11-10,91952,2023-02-14 15:54:11 UTC,P,,,2017-11-01,,,,,J1772,US,,,,Public - Appeler à l'avance,,public,CALL,,CAR_DEALER,,,,,,,Free,,,,,,,,,,false,,,,,,,,LD,false
ELEC,EchoPark Automotive,1626 Jamboree Dr,,Colorado Springs,CO,80920,,720-253-1948,E,,Public - Call ahead,Dealership business hours,,,,,,1,,,Non-Networked,,200-8,38.950347,-104.795662,2022-12-13,91970,2023-02-14 15:54:11 UTC,P,,,2017-11-01,,,,,J1772,US,,,,Public - Appeler à l'avance,,public,CALL,,CAR_DEALER,,,,,,,Free,,,,,,,,,,false,,,,,,,,LD,false
E85,Kum & Go #685,6615 Dalby Dr,,Colorado Springs,CO,80923,,719-559-1780,E,,Public,24 hours daily,A Cash D Debit M V Voyager Wright_Exp,,,,,,,,,,200-8,38.92668,-104.72101,2022-06-14,92131,2023-09-22 18:59:08 UTC,P,,,2018-02-15,,,,true,,US,,,,Public,,public,,,CONVENIENCE_STORE,,,,,,"[""E15""]",,,,,,,,,,,false,,,,,,,,,
ELEC,ESTES PARKING VIS PARKING E 1,691 N St Vrain Ave,,Estes Park,CO,80517,,888-758-4389,E,,Public,24 hours daily,,,,,,2,,,ChargePoint Network,http://www.chargepoint.com/,GPS,40.377771,-105.513223,2023-09-28,92269,2023-09-28 00:22:52 UTC,,,,2018-03-07,,,,,J1772,US,,,,Public,,public,,,,,,,,,,,,,,,,,,,,,,,,,,,,,false
ELEC,CCD CHARGING STATION 7B,201 W Colfax Ave,,Denver,CO,80202,,888-758-4389,E,,Public,24 hours daily,,,,,,1,,,ChargePoint Network,http://www.chargepoint.com/,GPS,39.741026,-104.98978,2023-09-28,92304,2023-09-28 00:22:31 UTC,,,,2018-03-07,,,,,J1772,US,,,,Public,,public,,,,,,,,,,,,,,,,,,,,,,,,,,,,,false
ELEC,ECG COUNTY BLDG 1,501-599 Broadway St,,Eagle,CO,81631,,888-758-4389,E,,Public,24 hours daily,,,,,,2,,,ChargePoint Network,http://www.chargepoint.com/,GPS,39.651991,-106.828288,2023-09-28,92322,2023-09-28 00:22:19 UTC,,,,2018-03-07,,,,,J1772,US,,,,Public,,public,,,,,,,,,,,,,,,,,,,,,,,,,,,,,false
ELEC,FORT COLLINS FORT COLLINS E,Timberwood Dr,,Fort Collins,CO,80528,,888-758-4389,E,,Public,24 hours daily,,,,,,2,,,ChargePoint Network,http://www.chargepoint.com/,GPS,40.52082,-105.019594,2023-09-28,92325,2023-09-28 00:22:16 UTC,,,,2018-03-07,,,,,J1772,US,,,,Public,,public,,,,,,,,,,,,,,,,,,,,,,,,,,,,,false
ELEC,USBANKTOWER 16TH ST CNTR 2,1625 Champa St,,Denver,CO,80202,,888-758-4389,E,,Public,24 hours daily,,,,,,2,,,ChargePoint Network,http://www.chargepoint.com/,GPS,39.746812,-104.993707,2023-09-28,92341,2023-09-28 00:21:57 UTC,,,,2018-03-07,,,,,J1772,US,,,,Public,,public,,,,,,,,,,,,,,,,,,,,,,,,,,,,,false
ELEC,MUNICIPAL SC 1400 WALNUT1,1400 Walnut St,,Boulder,CO,80302,,888-758-4389,E,,Public,24 hours daily,,,,,,2,,,ChargePoint Network,http://www.chargepoint.com/,GPS,40.017086,-105.27634,2023-09-28,92348,2023-09-28 00:21:54 UTC,,,,2018-03-07,,,,,J1772,US,,,,Public,,public,,,,,,,,,,,,,,,,,,,,,,,,,,,,,false
ELEC,MUNICIPAL SC 1500PEARL2,1500 Pearl St,,Boulder,CO,80302,,888-758-4389,E,,Public,24 hours daily,,,,,,2,,,ChargePoint Network,http://www.chargepoint.com/,GPS,40.018504,-105.275042,2023-09-28,92350,2023-09-28 00:21:38 UTC,,,,2018-03-07,,,,,J1772,US,,,,Public,,public,,,,,,,,,,,,,,,,,,,,,,,,,,,,,false
ELEC,MUNICIPAL SC 1000WALNUT1,900 Walnut St,,Boulder,CO,80302,,888-758-4389,E,,Public,24 hours daily,,,,,,2,,,ChargePoint Network,http://www.chargepoint.com/,GPS,40.016206,-105.282204,2023-09-28,92351,2023-09-28 00:21:54 UTC,,,,2018-03-07,,,,,J1772,US,,,,Public,,public,,,,,,,,,,,,,,,,,,,,,,,,,,,,,false
ELEC,MUNICIPAL SC 1104 SPRUCE1,1100 Spruce St,,Boulder,CO,80302,,888-758-4389,E,,Public,24 hours daily,,,,,,2,,,ChargePoint Network,http://www.chargepoint.com/,GPS,40.018548,-105.281391,2023-09-28,92353,2023-09-28 00:21:50 UTC,,,,2018-03-07,,,,,J1772,US,,,,Public,,public,,,,,,,,,,,,,,,,,,,,,,,,,,,,,false
ELEC,SVVSD NIWOT HS,8989 Niwot Road,,Niwot,CO,80503,,888-758-4389,E,,Public,24 hours daily,,,,,,2,,,ChargePoint Network,http://www.chargepoint.com/,GPS,40.102895,-105.145042,2023-09-28,92428,2023-09-28 00:19:36 UTC,,,,2018-03-07,,,,,J1772,US,,,,Public,,public,,,,,,,,,,,,,,,,,,,,,,,,,,,,,false
ELEC,BOULDER FACILITIES ST1,1745 14th street,,Boulder,CO,80302,,888-758-4389,E,,Public,24 hours daily,,,,,,2,,,ChargePoint Network,http://www.chargepoint.com/,GPS,40.015303,-105.276852,2023-09-28,92463,2023-09-28 00:17:48 UTC,,,,2018-03-07,,,,,J1772,US,,,,Public,,public,,,,,,,,,,,,,,,,,,,,,,,,,,,,,false
ELEC,CCD CHARGING BANNOCK LOT 1,1329-1343 Bannock St,,Denver,CO,80204,,888-758-4389,E,,Public,24 hours daily,,,,,,1,,,ChargePoint Network,http://www.chargepoint.com/,GPS,39.737739,-104.99041,2023-09-28,94366,2023-09-28 00:23:42 UTC,,,,2018-03-21,,,,,J1772,US,,,,Public,,public,,,,,,,,,,,,,,,,,,,,,,,,,,,,,false
ELEC,KUM & GO BRIGHTON1,5112 E Bromley Ln,,Brighton,CO,80603,,888-758-4389,E,,Public,24 hours daily,,,,,,2,,,ChargePoint Network,http://www.chargepoint.com/,GPS,39.971568,-104.748777,2023-09-28,94712,2023-09-28 00:22:19 UTC,,,,2018-04-07,,,,,J1772,US,,,,Public,,public,,,,,,,,,,,,,,,,,,,,,,,,,,,,,false
ELEC,MUNICIPAL SC 1100WALNUT1,1100 Walnut,,Boulder,CO,80302,,888-758-4389,E,,Public,24 hours daily,,,,,,2,,,ChargePoint Network,http://www.chargepoint.com/,GPS,40.016586,-105.28036,2023-09-28,94713,2023-09-28 00:21:54 UTC,,,,2018-04-07,,,,,J1772,US,,,,Public,,public,,,,,,,,,,,,,,,,,,,,,,,,,,,,,false
E85,Kum & Go #319,18465 W Colfax Ave,,Golden,CO,80401,,303-279-9059,E,,Public,24 hours daily,A Cash D FuelMan M V Voyager Wright_Exp,,,,,,,,,,200-8,39.702835,-105.204259,2023-03-08,94902,2023-03-08 17:16:33 UTC,P,,,2018-03-22,,,,false,,US,,,,Public,,public,,,CONVENIENCE_STORE,,,,,,,,,,,,,,,,,false,,,,,,,,,
E85,Kum & Go #320,250 E 136th Ave,,Thornton,CO,80241,,303-942-1543,E,,Public,24 hours daily,A Cash D FuelMan M V Voyager Wright_Exp,,,,,,,,,,GPS,39.94253568141042,-104.9831816944427,2023-03-08,94903,2023-03-08 17:16:33 UTC,P,,,2018-02-22,,,,false,,US,,,,Public,,public,,,CONVENIENCE_STORE,,,,,,,,,,,,,,,,,false,,,,,,,,,
E85,Kum & Go #690,1450 Garden of the Gods Rd,,Colorado Springs,CO,80907,,719-559-4785,E,,Public,24 hours daily,A Cash D M V Voyager Wright_Exp,,,,,,,,,,200-9,38.896831,-104.853675,2023-03-08,94906,2023-03-08 17:16:33 UTC,P,,,2018-03-29,,,,true,,US,,,,Public,,public,,,CONVENIENCE_STORE,,,,,,"[""E15""]",,,,,,,,,,,false,,,,,,,,,
ELEC,SVVSD MEAD HS 1,12636-12734 Co Rd 7,,Longmont,CO,80504,,888-758-4389,E,,Public,24 hours daily,,,,,,2,,,ChargePoint Network,http://www.chargepoint.com/,GPS,40.184578,-104.997297,2023-09-28,94945,2023-09-28 00:19:36 UTC,,,,2018-04-12,,,,,J1772,US,,,,Public,,public,,,,,,,,,,,,,,,,,,,,,,,,,,,,,false
ELEC,FRA TTC OPS1,55500 Dot Test Rd,,Boone,CO,81025,,888-758-4389,E,,Public,24 hours daily,,,,,,2,,,ChargePoint Network,http://www.chargepoint.com/,GPS,38.434404,-104.285437,2023-09-28,95015,2023-09-28 00:27:42 UTC,,,,2018-04-17,,,,,J1772,US,,,,Public,,public,,,,,,,,,,,,,,,,,,,,,,,,,,,,,false
ELEC,CDOT PUEBNPB,5615 Wills Blvd,,Pueblo,CO,81008,,888-758-4389,E,,Public,24 hours daily,,,,,,2,,,ChargePoint Network,http://www.chargepoint.com/,GPS,38.332168,-104.62462,2023-09-28,96863,2023-09-28 00:23:37 UTC,,,,2018-05-01,,,,,J1772,US,,,,Public,,public,,,,,,,,,,,,,,,,,,,,,,,,,,,,,false
ELEC,COLO. COLLEGE C1 STATION 1,123 Uintah St.,,Colorado Springs,CO,80903,,888-758-4389,E,,Public,24 hours daily,,,,,,2,,,ChargePoint Network,http://www.chargepoint.com/,GPS,38.849385,-104.823171,2023-09-28,96889,2023-09-28 00:21:13 UTC,,,,2018-05-03,,,,,J1772,US,,,,Public,,public,,,,,,,,,,,,,,,,,,,,,,,,,,,,,false
ELEC,NAMASTE SOLAR 1 6707 WINCHESTER,6707 Winchester Cir,,Boulder,CO,80301,,888-758-4389,E,,Public,24 hours daily,,,,,,2,,,ChargePoint Network,http://www.chargepoint.com/,GPS,40.078682,-105.19644,2023-09-28,96961,2023-09-28 00:23:30 UTC,,,,2018-05-09,,,,,J1772,US,,,,Public,,public,,,,,,,,,,,,,,,,,,,,,,,,,,,,,false
ELEC,MVHS MVHS,10585 Mountain Vista Ridge,,Highlands Ranch,CO,80126,,888-758-4389,E,,Public,24 hours daily,,,,,,2,,,ChargePoint Network,http://www.chargepoint.com/,GPS,39.521561,-104.964708,2023-09-28,98452,2023-09-28 00:24:15 UTC,,,,2018-05-19,,,,,J1772,US,,,,Public,,public,,,,,,,,,,,,,,,,,,,,,,,,,,,,,false
ELEC,DFC GSA ST3,3rd St,,Denver,CO,80226,,888-758-4389,E,,Public,24 hours daily,,,,,,2,,,ChargePoint Network,http://www.chargepoint.com/,GPS,39.719694,-105.115004,2023-09-28,98484,2023-09-28 00:25:02 UTC,,,,2018-05-23,,,,,J1772,US,,,,Public,,public,,,,,,,,,,,,,,,,,,,,,,,,,,,,,false
ELEC,DFC GSA ST7,Federal Center Building 25,,Denver,CO,80215,,888-758-4389,E,,Public,24 hours daily,,,,,,2,,,ChargePoint Network,http://www.chargepoint.com/,GPS,39.722629,-105.115356,2023-09-28,98485,2023-09-28 00:25:02 UTC,,,,2018-05-23,,,,,J1772,US,,,,Public,,public,,,,,,,,,,,,,,,,,,,,,,,,,,,,,false
ELEC,DFC GSA ST6,Federal Center Building 24,,Denver,CO,80215,,888-758-4389,E,,Public,24 hours daily,,,,,,2,,,ChargePoint Network,http://www.chargepoint.com/,GPS,39.72248,-105.115239,2023-09-28,98486,2023-09-28 00:25:02 UTC,,,,2018-05-23,,,,,J1772,US,,,,Public,,public,,,,,,,,,,,,,,,,,,,,,,,,,,,,,false
ELEC,DFC GSA ST9,11085-11131 W Alameda Ave,,Lakewood,CO,80226,,888-758-4389,E,,Public,24 hours daily,,,,,,2,,,ChargePoint Network,http://www.chargepoint.com/,GPS,39.712917,-105.125748,2023-09-28,98487,2023-09-28 00:25:02 UTC,,,,2018-05-23,,,,,J1772,US,,,,Public,,public,,,,,,,,,,,,,,,,,,,,,,,,,,,,,false
ELEC,DFC GSA ST10,Federal Center building 810,,Lakewood,CO,80226,,888-758-4389,E,,Public,24 hours daily,,,,,,2,,,ChargePoint Network,http://www.chargepoint.com/,GPS,39.712396,-105.125979,2023-09-28,98488,2023-09-28 00:25:01 UTC,,,,2018-05-23,,,,,J1772,US,,,,Public,,public,,,,,,,,,,,,,,,,,,,,,,,,,,,,,false
ELEC,DFC GSA ST1,5th St,,Denver,CO,80215,,888-758-4389,E,,Public,24 hours daily,,,,,,2,,,ChargePoint Network,http://www.chargepoint.com/,GPS,39.71755,-105.118153,2023-09-28,98489,2023-09-28 00:25:01 UTC,,,,2018-05-23,,,,,J1772,US,,,,Public,,public,,,,,,,,,,,,,,,,,,,,,,,,,,,,,false
ELEC,LOVELAND HA2018 LOVELAND HA2018,375 west 37th street,,Loveland,CO,80538,,888-758-4389,E,,Public,24 hours daily,,,,,,1,,,ChargePoint Network,http://www.chargepoint.com/,GPS,40.431468,-105.081794,2023-09-28,98495,2023-09-28 00:22:55 UTC,,,,2018-05-23,,,,,J1772,US,,,,Public,,public,,,,,,,,,,,,,,,,,,,,,,,,,,,,,false
ELEC,CDOT L1 NORTH STN,2829 W Howard Pl,,Denver,CO,80204,,888-758-4389,E,,Public,24 hours daily,,,,,,2,,,ChargePoint Network,http://www.chargepoint.com/,GPS,39.738743,-105.022746,2023-09-28,98531,2023-09-28 00:19:25 UTC,,,,2018-05-25,,,,,J1772,US,,,,Public,,public,,,,,,,,,,,,,,,,,,,,,,,,,,,,,false
E85,Kum & Go #689,4512 Austin Bluffs Pkwy,,Colorado Springs,CO,80918,,719-266-1687,E,,Public,24 hours daily,A Cash D Debit M V Voyager Wright_Exp,,,,,,,,,,200-8,38.897681,-104.747416,2023-03-08,98627,2023-03-08 17:16:33 UTC,P,,,2018-05-15,,,,true,,US,,,,Public,,public,,,CONVENIENCE_STORE,,,,,,"[""E15""]",,,,,,,,,,,false,,,,,,,,,
ELEC,UNIV. OF COLO WOLF LAW WEST,2450 Kittredge Loop Dr,,Boulder,CO,80305,,888-758-4389,E,,Public,24 hours daily,,,,,,2,,,ChargePoint Network,http://www.chargepoint.com/,GPS,40.00114,-105.26303,2023-09-28,98789,2023-09-28 00:36:49 UTC,,,,2018-06-08,,,,,J1772,US,,,,Public,,public,,,,,,,,,,,,,,,,,,,,,,,,,,,,,false
ELEC,SBV-EV SBV EV 2,84 Carriage Way,,Snowmass Village,CO,81615,,888-758-4389,E,,Public,24 hours daily,,,,,,2,,,ChargePoint Network,http://www.chargepoint.com/,GPS,39.208847,-106.948814,2023-09-28,98823,2023-09-28 00:25:05 UTC,,,,2018-06-12,,,,,J1772,US,,,,Public,,public,,,,,,,,,,,,,,,,,,,,,,,,,,,,,false
ELEC,DFC GSA ST8,Routt Street,,Denver,CO,80228,,888-758-4389,E,,Public,24 hours daily,,,,,,2,,,ChargePoint Network,http://www.chargepoint.com/,GPS,39.712869,-105.125965,2023-09-28,98826,2023-09-28 00:25:01 UTC,,,,2018-06-12,,,,,J1772,US,,,,Public,,public,,,,,,,,,,,,,,,,,,,,,,,,,,,,,false
ELEC,BC PUBLIC N BROADWAY 1,3460 Broadway,,Boulder,CO,80304,,888-758-4389,E,,Public,24 hours daily,,,,,,2,,,ChargePoint Network,http://www.chargepoint.com/,GPS,40.037727,-105.281657,2023-09-28,98872,2023-09-28 00:16:20 UTC,,,,2018-06-13,,,,,J1772,US,,,,Public,,public,,,,,,,,,,,,,,,,,,,,,,,,,,,,,false
ELEC,Mesa County Public Library,502 Ouray Ave,,Grand Junction,CO,81501,,970-248-0057,E,,Public,24 hours daily,,,,,,,1,,Non-Networked,,GPS,39.07167,-108.563984,2022-12-13,99432,2023-02-14 15:54:11 UTC,LG,,,2018-06-25,,,,,CHADEMO J1772COMBO,US,,,,Public,,public,,,LIBRARY,,,,,,,$4 per hour,,,,,,,,,,false,,,,,,,,LD,false
ELEC,SVVSD GRAND VIEW ES,6601 Aggregate Blvd,,Frederick,CO,80516,,888-758-4389,E,,Public,24 hours daily,,,,,,2,,,ChargePoint Network,http://www.chargepoint.com/,GPS,40.095792,-104.999656,2023-09-28,99480,2023-09-28 00:23:50 UTC,,,,2018-06-27,,,,,J1772,US,,,,Public,,public,,,,,,,,,,,,,,,,,,,,,,,,,,,,,false
ELEC,UNICOPROPERTIES CIRCA 1,1615 Platte Street,,Denver,CO,80202,,888-758-4389,E,,Public,24 hours daily,,,,,,2,,,ChargePoint Network,http://www.chargepoint.com/,GPS,39.758097,-105.008001,2023-09-28,99622,2023-09-28 00:22:04 UTC,,,,2018-07-06,,,,,J1772,US,,,,Public,,public,,,,,,,,,,,,,,,,,,,,,,,,,,,,,false
ELEC,WEST PEARL WP ALLEY,Morrison Alley,,Boulder,CO,80302,,888-758-4389,E,,Public,24 hours daily,,,,,,2,,,ChargePoint Network,http://www.chargepoint.com/,GPS,40.017646,-105.283488,2023-09-28,99753,2023-09-28 00:25:03 UTC,,,,2018-07-14,,,,,J1772,US,,,,Public,,public,,,,,,,,,,,,,,,,,,,,,,,,,,,,,false
ELEC,CITY OF ASPEN RIO GRANDE L2 2,427 Rio Grande Pl,,Aspen,CO,81611,,888-758-4389,E,,Public,24 hours daily,,,,,,2,,,ChargePoint Network,http://www.chargepoint.com/,GPS,39.191379,-106.81777,2023-09-28,99766,2023-09-28 00:25:15 UTC,,,,2018-07-17,,,,,J1772,US,,,,Public,,public,,,,,,,,,,,,,,,,,,,,,,,,,,,,,false
ELEC,CHARGING FLINTRIDGE ST2,4740 Flintridge Dr.,,Colorado Springs,CO,80918,,888-758-4389,E,,Public,24 hours daily,,,,,,2,,,ChargePoint Network,http://www.chargepoint.com/,GPS,38.901245,-104.76956,2023-09-28,99806,2023-09-28 00:24:42 UTC,,,,2018-07-19,,,,,J1772,US,,,,Public,,public,,,,,,,,,,,,,,,,,,,,,,,,,,,,,false
ELEC,CHERRY CREEK PARK OFFICE,Park Office Access,,Aurora,CO,80014,,888-758-4389,E,,Public,24 hours daily,,,,,,2,,,ChargePoint Network,http://www.chargepoint.com/,GPS,39.62684,-104.830065,2023-09-28,99908,2023-09-28 00:25:28 UTC,,,,2018-07-25,,,,,J1772,US,,,,Public,,public,,,,,,,,,,,,,,,,,,,,,,,,,,,,,false
ELEC,TOWN OF FRASER THE FOUNDRY,22 Second St,,Fraser,CO,80442,,888-758-4389,E,,Public,24 hours daily,,,,,,2,,,ChargePoint Network,http://www.chargepoint.com/,GPS,39.927843,-105.789359,2023-09-28,100026,2023-09-28 00:25:35 UTC,,,,2018-08-01,,,,,J1772,US,,,,Public,,public,,,,,,,,,,,,,,,,,,,,,,,,,,,,,false
E85,Kum & Go #939,5112 E Bromley Ln,,Brighton,CO,80601,,303-654-3483,E,,Public,24 hours daily,A Cash D Debit M V,,,,,,,,,,GPS,39.97176956046867,-104.7488912446747,2023-03-08,100043,2023-03-08 17:16:33 UTC,P,,,2018-07-15,,,,false,,US,,,,Public,,public,,,CONVENIENCE_STORE,,,,,,,,,,,,,,,,,false,,,,,,,,,
ELEC,UNICOPROPERTIES 1875 LAWRENCE,1875 Lawrence St,,Denver,CO,80202,,888-758-4389,E,,Public,24 hours daily,,,,,,2,,,ChargePoint Network,http://www.chargepoint.com/,GPS,39.75136,-104.993421,2023-09-28,100264,2023-09-28 00:25:34 UTC,,,,2018-08-09,,,,,J1772,US,,,,Public,,public,,,,,,,,,,,,,,,,,,,,,,,,,,,,,false
ELEC,ESTES PARKING TOWN HALL LOT 1,335 W Elkhorn Ave,,Estes Park,CO,80517,,888-758-4389,E,,Public,24 hours daily,,,,,,2,,,ChargePoint Network,http://www.chargepoint.com/,GPS,40.377958,-105.519686,2023-09-28,100410,2023-09-28 00:25:40 UTC,,,,2018-08-17,,,,,J1772,US,,,,Public,,public,,,,,,,,,,,,,,,,,,,,,,,,,,,,,false
ELEC,PUBLIC PARKING FLOOR 2 SPACE 9,1776 Curtis Street,,Denver,CO,80202,,888-758-4389,E,,Public,24 hours daily,,,,,,1,,,ChargePoint Network,http://www.chargepoint.com/,GPS,39.748358,-104.992576,2023-09-28,100432,2023-09-28 00:21:48 UTC,,,,2018-08-18,,,,,J1772,US,,,,Public,,public,,,,,,,,,,,,,,,,,,,,,,,,,,,,,false
ELEC,AURARIA 5TH ST GARAGE4,1351 5th Street,,Denver,CO,80204,,888-758-4389,E,,Public,24 hours daily,,,,,,2,,,ChargePoint Network,http://www.chargepoint.com/,GPS,39.742932,-105.010465,2023-09-28,100447,2023-09-28 00:25:45 UTC,,,,2018-08-21,,,,,J1772,US,,,,Public,,public,,,,,,,,,,,,,,,,,,,,,,,,,,,,,false
ELEC,BOULDER N BOULDER REC 1,3172 Broadway,,Boulder,CO,80304,,888-758-4389,E,,Public,24 hours daily,,,,,,2,,,ChargePoint Network,http://www.chargepoint.com/,GPS,40.032839,-105.280947,2023-09-28,100474,2023-09-28 00:19:46 UTC,,,,2018-08-22,,,,,J1772,US,,,,Public,,public,,,,,,,,,,,,,,,,,,,,,,,,,,,,,false
ELEC,PEARL EAST PROP 4845 PEARL 1,4990 Pearl Pkwy,,Boulder,CO,80301,,888-758-4389,E,,Public,24 hours daily,,,,,,2,,,ChargePoint Network,http://www.chargepoint.com/,GPS,40.020529,-105.2358,2023-09-28,100523,2023-09-28 00:25:46 UTC,,,,2018-08-25,,,,,J1772,US,,,,Public,,public,,,,,,,,,,,,,,,,,,,,,,,,,,,,,false
ELEC,UNICOPROPERTIES 2500 55TH ST,2500 55th St,,Boulder,CO,80301,,888-758-4389,E,,Public,24 hours daily,,,,,,2,,,ChargePoint Network,http://www.chargepoint.com/,GPS,40.024741,-105.224737,2023-09-28,100524,2023-09-28 00:25:45 UTC,,,,2018-08-25,,,,,J1772,US,,,,Public,,public,,,,,,,,,,,,,,,,,,,,,,,,,,,,,false
ELEC,Inn at Aspen - Tesla Supercharger,38750 Highway 82,,Aspen,CO,81611,,877-798-3752,E,,Public,24 hours daily,,,,,,,8,,Tesla,https://www.tesla.com/supercharger,200-9,39.204837,-106.858507,2023-07-01,102078,2023-07-14 19:41:28 UTC,P,,,2018-07-23,,,,,TESLA,US,,,,Public,,public,,,,,,,,,,,,,,,,,,,,,,,,,,,,,false
